Status,,28,15,6,3,1575420030,16.10,327.0,72.0,0,1,0,11.8
Status,,28,16,6,5,1575420030,14.90,108.0,47.0,0,1,0,10.599999
Status,,28,17,6,8,1575420030,19.40,303.0,22.0,1,1,0,15.099999
Status,,28,18,6,24,1575420030,12.70,52.0,39.0,1,1,0,8.4
Status,,28,19,6,3,1176450050,16.40,327.0,72.0,0,1,0,11.099999
Status,,28,20,6,5,1176450050,19.70,108.0,47.0,0,1,0,14.400001
Status,,28,21,6,8,1176450050,19.10,303.0,22.0,0,1,0,13.8
Status,,28,22,6,24,1176450050,16.90,52.0,39.0,0,1,0,11.599999
Status,,28,23,6,25,1176450050,13.20,144.0,64.0,0,1,0,7.8999996
Fix,GPS,41.3893369700,2.1134980600,159.796630859375,0.0,11.7041855,,1714786723000,0.29068884,,41022277438778,6.251076,0,,,
Status,1714786723000,27,15,6,3,1575420030,14.90,327.0,72.0,0,1,0,10.599999
Status,1714786723000,27,16,6,8,1575420030,22.20,303.0,22.0,0,1,0,17.900002
Status,1714786723000,27,17,6,24,1575420030,12.70,52.0,39.0,1,1,0,8.4
Status,1714786723000,27,18,6,3,1176450050,16.40,327.0,72.0,0,1,0,11.099999
Status,1714786723000,27,19,6,5,1176450050,19.70,108.0,47.0,0,1,0,14.400001
Status,1714786723000,27,20,6,8,1176450050,19.10,303.0,22.0,1,1,0,13.8
Status,1714786723000,27,21,6,24,1176450050,16.90,52.0,39.0,0,1,0,11.599999
Status,1714786723000,27,22,6,25,1176450050,13.20,144.0,64.0,0,1,0,7.8999996
Raw,1714786723440,38218617000000,18,,-1398783722823158888,-0.25058937072753906,70.08371903793886,-5.535861997593715,17.958085067770256,23,3,0.0,23567,524341361841147,181,14.9,-143.9000701904297,7.877000331878662,16,0.0,0.0,1575420030,,,,0,,6,-0.37,10.600000000000001,-1447.067138671875,26.679561614990234,,,C,40947380969686
Raw,1714786723440,38218617000000,18,,-1398783722823158888,-0.25058937072753906,70.08371903793886,-5.535861997593715,17.958085067770256,23,8,0.0,23567,524341351404810,70,22.2,-453.955078125,1.790000081062317,16,0.0,0.0,1575420030,,,,0,,6,-0.37,17.9,-1447.067138671875,26.679561614990234,,,C,40947380969686
Fix,GPS,41.3893371900,2.1134978500,160.06011962890625,0.0,11.025373,,1714786724000,0.21633308,,41023277438778,6.576689,0,,,
Status,1714786724000,28,16,6,3,1575420030,14.90,327.0,72.0,1,1,0,10.599999
Status,1714786724000,28,17,6,8,1575420030,22.20,303.0,22.0,1,1,0,17.900002
Status,1714786724000,28,18,6,24,1575420030,12.70,52.0,39.0,1,1,0,8.4
Status,1714786724000,28,19,6,3,1176450050,16.40,327.0,72.0,0,1,0,11.099999
Status,1714786724000,28,20,6,5,1176450050,19.70,108.0,47.0,0,1,0,14.400001
Status,1714786724000,28,21,6,8,1176450050,21.10,303.0,22.0,0,1,0,15.8
Status,1714786724000,28,22,6,24,1176450050,16.90,52.0,39.0,0,1,0,11.599999
Status,1714786724000,28,23,6,25,1176450050,10.80,144.0,64.0,0,1,0,5.5
Fix,GPS,41.3893372000,2.1134978500,160.076904296875,0.0,11.345414,,1714786725000,0.2385372,,41024277438778,7.118368,0,,,
Status,1714786725000,29,16,6,3,1575420030,14.90,327.0,72.0,1,1,0,10.599999
Status,1714786725000,29,17,6,8,1575420030,18.90,303.0,22.0,0,1,0,14.599999
Status,1714786725000,29,18,6,24,1575420030,12.70,52.0,39.0,1,1,0,8.4
Status,1714786725000,29,19,6,3,1176450050,14.60,327.0,72.0,0,1,0,9.3
Status,1714786725000,29,20,6,5,1176450050,19.70,108.0,47.0,0,1,0,14.400001
Status,1714786725000,29,21,6,8,1176450050,26.10,303.0,22.0,1,1,0,20.8
Status,1714786725000,29,22,6,24,1176450050,16.90,52.0,39.0,0,1,0,11.599999
Status,1714786725000,29,23,6,25,1176450050,10.80,144.0,64.0,0,1,0,5.5
Raw,1714786725440,38220617000000,18,,-1398783722823158888,-0.6380195617675781,72.57577817654237,-4.06417993325022,15.976501665661797,23,8,0.0,23567,524343351407854,106,18.9,-453.4698181152344,2.1500000953674316,16,0.0,0.0,1575420030,,,,0,,6,0.17,14.599999999999998,-1447.067138671875,26.679561614990234,,,C,40949376698435
Raw,1714786725440,38220617000000,18,,-1398783722823158888,-0.6380195617675781,72.57577817654237,-4.06417993325022,15.976501665661797,23,8,0.0,81935,524343351414219,10,26.1,-453.5939025878906,0.7579999566078186,16,0.0,0.0,1176450050,,,,0,,6,1.59,20.8,-7840.3154296875,158.17909240722656,,,Q,40949376698435
Fix,GPS,41.3893372000,2.1134978400,160.07891845703125,0.0,11.702245,,1714786726000,0.28178006,,41025277438778,7.483224,0,,,
Status,1714786726000,31,18,6,3,1575420030,18.30,327.0,72.0,1,1,0,13.999999
Status,1714786726000,31,19,6,8,1575420030,18.90,303.0,22.0,0,1,0,14.599999
Status,1714786726000,31,20,6,24,1575420030,12.70,52.0,39.0,1,1,0,8.4
Status,1714786726000,31,21,6,3,1176450050,14.60,327.0,72.0,0,1,0,9.3
Status,1714786726000,31,22,6,5,1176450050,19.70,108.0,47.0,0,1,0,14.400001
Status,1714786726000,31,23,6,8,1176450050,26.20,303.0,22.0,1,1,0,20.900002
Status,1714786726000,31,24,6,24,1176450050,16.90,52.0,39.0,0,1,0,11.599999
Status,1714786726000,31,25,6,25,1176450050,10.80,144.0,64.0,0,1,0,5.5
Raw,1714786726440,38221617000000,18,,-1398783722823158889,-0.293670654296875,77.43228343315423,-3.2772080427225343,17.301789210528334,23,3,0.0,23567,524344361842572,106,18.3,-143.0247344970703,2.867000102996826,16,0.0,0.0,1575420030,,,,0,,6,0.26,14.0,-1447.067138671875,26.679561614990234,,,C,40950379412861
Raw,1714786726440,38221617000000,18,,-1398783722823158889,-0.293670654296875,77.43228343315423,-3.2772080427225343,17.301789210528334,23,8,0.0,81935,524344351415726,10,26.2,-453.9124450683594,0.7579999566078186,16,0.0,0.0,1176450050,,,,0,,6,1.69,20.9,-7840.3310546875,167.47067260742188,,,Q,40950379412861
Fix,GPS,41.3893372100,2.1134978600,160.09588623046875,0.0,12.074166,,1714786727000,0.31780496,,41026277438778,7.6732683,0,,,
Status,1714786727000,30,17,6,3,1575420030,18.30,327.0,72.0,1,1,0,13.999999
Status,1714786727000,30,18,6,8,1575420030,20.60,303.0,22.0,0,1,0,16.3
Status,1714786727000,30,19,6,24,1575420030,12.70,52.0,39.0,0,1,0,8.4
Status,1714786727000,30,20,6,3,1176450050,14.60,327.0,72.0,0,1,0,9.3
Status,1714786727000,30,21,6,5,1176450050,19.70,108.0,47.0,0,1,0,14.400001
Status,1714786727000,30,22,6,8,1176450050,26.00,303.0,22.0,1,1,0,20.7
Status,1714786727000,30,23,6,24,1176450050,16.90,52.0,39.0,0,1,0,11.599999
Status,1714786727000,30,24,6,25,1176450050,10.80,144.0,64.0,0,1,0,5.5
Raw,1714786727440,38222617000000,18,,-1398783722823158890,-0.26224613189697266,80.59368701651692,-3.834365044186884,18.225241476489618,23,8,0.0,23567,524345351410890,80,20.6,-453.7267150878906,1.9600000381469727,16,0.0,0.0,1575420030,,,,0,,6,0.33,16.3,-1447.067138671875,26.679561614990234,,,C,40951378036507
Raw,1714786727440,38222617000000,18,,-1398783722823158890,-0.26224613189697266,80.59368701651692,-3.834365044186884,18.225241476489618,23,8,0.0,81935,524345351417247,10,26.0,-453.56817626953125,0.10719999670982361,16,0.0,2548.2550006752426,1176450050,,,,0,,6,3.1,20.7,-7840.3466796875,173.54574584960938,,,Q,40951378036507
Fix,GPS,41.3893373000,2.1134977700,160.223876953125,0.0,12.022687,,1714786728000,0.2729469,,41027277438778,7.3689976,0,,,
Status,1714786728000,30,17,6,3,1575420030,20.30,327.0,72.0,1,1,0,15.999999
Status,1714786728000,30,18,6,8,1575420030,21.50,303.0,22.0,0,1,0,17.2
Status,1714786728000,30,19,6,24,1575420030,12.70,52.0,39.0,0,1,0,8.4
Status,1714786728000,30,20,6,3,1176450050,14.60,327.0,72.0,0,1,0,9.3
Status,1714786728000,30,21,6,5,1176450050,14.00,108.0,47.0,0,1,0,8.7
Status,1714786728000,30,22,6,8,1176450050,27.00,303.0,22.0,1,1,0,21.7
Status,1714786728000,30,23,6,24,1176450050,16.90,52.0,39.0,0,1,0,11.599999
Status,1714786728000,30,24,6,25,1176450050,10.80,144.0,64.0,0,1,0,5.5
Raw,1714786728440,38223617000000,18,,-1398783722823158890,-0.9029960632324219,70.87014091666788,-4.100264514800517,14.235507589476148,23,3,0.0,23567,524346361843541,80,20.3,-143.03424072265625,1.9570000171661377,16,0.0,0.0,1575420030,,,,0,,6,0.26,16.0,-1447.067138671875,26.679561614990234,,,C,40952373752965
Raw,1714786728440,38223617000000,18,,-1398783722823158890,-0.9029960632324219,70.87014091666788,-4.100264514800517,14.235507589476148,23,8,0.0,23567,524346351412421,70,21.5,-453.6696472167969,1.0899999141693115,16,0.0,0.0,1575420030,,,,0,,6,0.26,17.2,-1447.067138671875,26.679561614990234,,,C,40952373752965
Raw,1714786728440,38223617000000,18,,-1398783722823158890,-0.9029960632324219,70.87014091666788,-4.100264514800517,14.235507589476148,23,8,0.0,81935,524346351418758,9,27.0,-453.70782470703125,0.07689999788999557,16,0.0,2548.2550006752426,1176450050,,,,0,,6,3.21,21.7,-7840.3779296875,154.76539611816406,,,Q,40952373752965
Fix,GPS,41.3893372900,2.1134977700,160.217529296875,0.0,11.388183,,1714786729000,0.29068884,,41028277438778,7.283904,0,,,
Status,1714786729000,30,17,6,3,1575420030,22.40,327.0,72.0,1,1,0,18.099998
Status,1714786729000,30,18,6,8,1575420030,21.50,303.0,22.0,0,1,0,17.2
Status,1714786729000,30,19,6,24,1575420030,12.70,52.0,39.0,0,1,0,8.4
Status,1714786729000,30,20,6,3,1176450050,18.30,327.0,72.0,0,1,0,12.999999
Status,1714786729000,30,21,6,5,1176450050,14.00,108.0,47.0,0,1,0,8.7
Status,1714786729000,30,22,6,8,1176450050,27.50,303.0,22.0,1,1,0,22.2
Status,1714786729000,30,23,6,24,1176450050,16.90,52.0,39.0,0,1,0,11.599999
Status,1714786729000,30,24,6,25,1176450050,10.80,144.0,64.0,0,1,0,5.5
Raw,1714786729440,38224617000000,18,,-1398783722823158892,-0.7507400512695312,72.58034747792408,-3.6442007667061653,16.204269507155285,23,3,0.0,23567,524347361844020,61,22.4,-143.10084533691406,1.0069999694824219,16,0.0,0.0,1575420030,,,,0,,6,0.2,18.099999999999998,-1447.067138671875,26.679561614990234,,,C,40953371648433
Raw,1714786729440,38224617000000,18,,-1398783722823158892,-0.7507400512695312,72.58034747792408,-3.6442007667061653,16.204269507155285,23,8,0.0,81935,524347351420270,8,27.5,-453.8806457519531,0.0681999996304512,16,0.0,2548.2550006752426,1176450050,,,,0,,6,3.21,22.2,-7840.4404296875,158.2172393798828,,,Q,40953371648433
Fix,GPS,41.3893372900,2.1134977600,160.2418212890625,0.0,11.600618,,1714786730000,0.26400757,,41029277438778,7.096959,0,,,
Status,1714786730000,30,17,6,3,1575420030,22.40,327.0,72.0,1,1,0,18.099998
Status,1714786730000,30,18,6,8,1575420030,19.00,303.0,22.0,0,1,0,14.7
Status,1714786730000,30,19,6,24,1575420030,12.70,52.0,39.0,0,1,0,8.4
Status,1714786730000,30,20,6,3,1176450050,18.30,327.0,72.0,0,1,0,12.999999
Status,1714786730000,30,21,6,5,1176450050,14.00,108.0,47.0,0,1,0,8.7
Status,1714786730000,30,22,6,8,1176450050,25.60,303.0,22.0,1,1,0,20.3
Status,1714786730000,30,23,6,24,1176450050,16.90,52.0,39.0,0,1,0,11.599999
Status,1714786730000,30,24,6,25,1176450050,10.80,144.0,64.0,0,1,0,5.5
Raw,1714786730440,38225617000000,18,,-1398783722823158900,-0.5142450332641602,72.62966391863301,-3.8835669538712363,17.241099896561675,23,8,0.0,23567,524348351415447,106,19.0,-453.4412841796875,1.9900000095367432,16,0.0,0.0,1575420030,,,,0,,6,0.13,14.7,-1447.067138671875,26.679561614990234,,,C,40954379476922
Raw,1714786730440,38225617000000,18,,-1398783722823158900,-0.5142450332641602,72.62966391863301,-3.8835669538712363,17.241099896561675,23,8,0.0,81935,524348351421781,10,25.6,-453.048095703125,0.10719999670982361,16,0.0,2548.2550006752426,1176450050,,,,0,,6,2.75,20.3,-7840.4716796875,158.44178771972656,,,Q,40954379476922
Fix,GPS,41.3893372900,2.1134977600,160.24176025390625,0.0,11.956051,,1714786731000,0.2915476,,41030277438778,6.9319715,0,,,
Status,1714786731000,30,17,6,3,1575420030,19.80,327.0,72.0,1,1,0,15.499999
Status,1714786731000,30,18,6,8,1575420030,19.00,303.0,22.0,0,1,0,14.7
Status,1714786731000,30,19,6,24,1575420030,12.70,52.0,39.0,0,1,0,8.4
Status,1714786731000,30,20,6,3,1176450050,18.30,327.0,72.0,0,1,0,12.999999
Status,1714786731000,30,21,6,5,1176450050,14.00,108.0,47.0,0,1,0,8.7
Status,1714786731000,30,22,6,8,1176450050,25.60,303.0,22.0,1,1,0,20.3
Status,1714786731000,30,23,6,24,1176450050,16.90,52.0,39.0,0,1,0,11.599999
Status,1714786731000,30,24,6,25,1176450050,10.80,144.0,64.0,0,1,0,5.5
Raw,1714786731440,38226617000000,18,,-1398783722823158902,-0.5408029556274414,87.50995039008558,-2.025025505256442,18.215930352578283,23,3,0.0,23567,524349361844961,92,19.8,-142.10179138183594,1.9869999885559082,16,0.0,0.0,1575420030,,,,0,,6,0.1,15.5,-1447.067138671875,26.679561614990234,,,C,40955375091661
Fix,GPS,41.3893374600,2.1134976100,160.50067138671875,0.0,11.886519,,1714786732000,0.28178006,,41031277438778,6.8363657,0,,,
Status,1714786732000,30,17,6,3,1575420030,19.80,327.0,72.0,1,1,0,15.499999
Status,1714786732000,30,18,6,8,1575420030,19.00,303.0,22.0,0,1,0,14.7
Status,1714786732000,30,19,6,24,1575420030,12.70,52.0,39.0,0,1,0,8.4
Status,1714786732000,30,20,6,3,1176450050,18.30,327.0,72.0,0,1,0,12.999999
Status,1714786732000,30,21,6,5,1176450050,14.00,108.0,47.0,0,1,0,8.7
Status,1714786732000,30,22,6,8,1176450050,25.60,303.0,22.0,1,1,0,20.3
Status,1714786732000,30,23,6,24,1176450050,16.90,52.0,39.0,0,1,0,11.599999
Status,1714786732000,30,24,6,25,1176450050,10.80,144.0,64.0,0,1,0,5.5
Fix,GPS,41.3893374500,2.1134976100,160.4981689453125,0.0,12.20061,,1714786733000,0.30870697,,41032277438778,6.8714814,0,,,
Status,1714786733000,29,16,6,3,1575420030,19.80,327.0,72.0,1,1,0,15.499999
Status,1714786733000,29,17,6,8,1575420030,19.00,303.0,22.0,0,1,0,14.7
Status,1714786733000,29,18,6,24,1575420030,12.70,52.0,39.0,0,1,0,8.4
Status,1714786733000,29,19,6,3,1176450050,18.30,327.0,72.0,0,1,0,12.999999
Status,1714786733000,29,20,6,5,1176450050,14.00,108.0,47.0,0,1,0,8.7
Status,1714786733000,29,21,6,8,1176450050,25.60,303.0,22.0,1,1,0,20.3
Status,1714786733000,29,22,6,24,1176450050,16.90,52.0,39.0,0,1,0,11.599999
Status,1714786733000,29,23,6,25,1176450050,10.80,144.0,64.0,0,1,0,5.5
Fix,GPS,41.3893373800,2.1134976900,160.3939208984375,0.0,11.241871,,1714786734000,0.3176476,,41033277438778,6.5987463,0,,,
Status,1714786734000,29,16,6,3,1575420030,19.80,327.0,72.0,1,1,0,15.499999
Status,1714786734000,29,17,6,8,1575420030,16.60,303.0,22.0,0,1,0,12.3
Status,1714786734000,29,18,6,24,1575420030,18.40,52.0,39.0,0,1,0,14.099999
Status,1714786734000,29,19,6,3,1176450050,18.30,327.0,72.0,0,1,0,12.999999
Status,1714786734000,29,20,6,5,1176450050,14.00,108.0,47.0,0,1,0,8.7
Status,1714786734000,29,21,6,8,1176450050,25.60,303.0,22.0,1,1,0,20.3
Status,1714786734000,29,22,6,24,1176450050,16.90,52.0,39.0,0,1,0,11.599999
Status,1714786734000,29,23,6,25,1176450050,10.80,144.0,64.0,0,1,0,5.5
Raw,1714786734440,38229617000000,18,,-1398783722823158906,-0.26609325408935547,63.98463301593438,-3.529331893195141,14.882142400145227,23,8,0.0,23567,524352351421482,139,16.6,-452.889404296875,3.830000400543213,16,0.0,0.0,1575420030,,,,0,,6,0.42,12.3,-1447.067138671875,26.679561614990234,,,C,40958371396817
Raw,1714786734440,38229617000000,18,,-1398783722823158906,-0.26609325408935547,63.98463301593438,-3.529331893195141,14.882142400145227,23,24,0.0,23567,524352355451945,106,18.4,330.6828308105469,2.1440000534057617,16,0.0,0.0,1575420030,,,,0,,6,0.42,14.099999999999998,-1447.067138671875,26.679561614990234,,,C,40958371396817
Fix,GPS,41.3893372700,2.1134978000,160.20672607421875,0.0,11.309897,,1714786735000,0.3176476,,41034277438778,6.422856,0,,,
Status,1714786735000,30,17,6,3,1575420030,19.80,327.0,72.0,1,1,0,15.499999
Status,1714786735000,30,18,6,8,1575420030,16.60,303.0,22.0,1,1,0,12.3
Status,1714786735000,30,19,6,24,1575420030,18.40,52.0,39.0,1,1,0,14.099999
Status,1714786735000,30,20,6,3,1176450050,18.30,327.0,72.0,0,1,0,12.999999
Status,1714786735000,30,21,6,5,1176450050,14.00,108.0,47.0,0,1,0,8.7
Status,1714786735000,30,22,6,8,1176450050,16.40,303.0,22.0,0,1,0,11.099999
Status,1714786735000,30,23,6,24,1176450050,16.90,52.0,39.0,0,1,0,11.599999
Status,1714786735000,30,24,6,25,1176450050,10.80,144.0,64.0,0,1,0,5.5
Fix,GPS,41.3893371600,2.1134979000,160.039306640625,0.0,11.375129,,1714786736000,0.3577709,,41035277438778,6.1305118,0,,,
Status,1714786736000,31,17,6,3,1575420030,19.80,327.0,72.0,1,1,0,15.499999
Status,1714786736000,31,18,6,8,1575420030,16.60,303.0,22.0,1,1,0,12.3
Status,1714786736000,31,19,6,24,1575420030,18.40,52.0,39.0,1,1,0,14.099999
Status,1714786736000,31,20,6,25,1575420030,14.40,144.0,64.0,0,1,0,10.099999
Status,1714786736000,31,21,6,3,1176450050,18.30,327.0,72.0,0,1,0,12.999999
Status,1714786736000,31,22,6,5,1176450050,14.00,108.0,47.0,0,1,0,8.7
Status,1714786736000,31,23,6,8,1176450050,16.40,303.0,22.0,0,1,0,11.099999
Status,1714786736000,31,24,6,24,1176450050,16.90,52.0,39.0,0,1,0,11.599999
Status,1714786736000,31,25,6,25,1176450050,10.80,144.0,64.0,0,1,0,5.5
Raw,1714786736440,38231617000000,18,,-1398783722823158924,-0.7733354568481445,58.000976423500106,-3.6109585115018805,17.924619736869257,23,25,0.0,23567,524354361191616,181,14.4,-206.5352325439453,10.097000122070312,16,0.0,0.0,1575420030,,,,0,,6,0.67,10.100000000000001,-1447.067138671875,26.679561614990234,,,C,40960377499681
Fix,GPS,41.3893368600,2.1134981600,159.58001708984375,0.0,11.737044,,1714786737000,0.35341194,,41036277438778,6.2981954,0,,,
Status,1714786737000,31,17,6,3,1575420030,19.80,327.0,72.0,1,1,0,15.499999
Status,1714786737000,31,18,6,8,1575420030,16.60,303.0,22.0,1,1,0,12.3
Status,1714786737000,31,19,6,24,1575420030,18.40,52.0,39.0,1,1,0,14.099999
Status,1714786737000,31,20,6,25,1575420030,14.40,144.0,64.0,1,1,0,10.099999
Status,1714786737000,31,21,6,3,1176450050,18.30,327.0,72.0,0,1,0,12.999999
Status,1714786737000,31,22,6,5,1176450050,14.00,108.0,47.0,0,1,0,8.7
Status,1714786737000,31,23,6,8,1176450050,16.40,303.0,22.0,0,1,0,11.099999
Status,1714786737000,31,24,6,24,1176450050,16.90,52.0,39.0,0,1,0,11.599999
Status,1714786737000,31,25,6,25,1176450050,10.80,144.0,64.0,0,1,0,5.5
Fix,GPS,41.3893367500,2.1134982600,159.40771484375,0.0,12.133918,,1714786738000,0.3939543,,41037277438778,6.2683215,0,,,
Status,1714786738000,32,18,6,3,1575420030,19.80,327.0,72.0,0,1,0,15.499999
Status,1714786738000,32,19,6,5,1575420030,19.00,108.0,47.0,0,1,0,14.7
Status,1714786738000,32,20,6,8,1575420030,16.60,303.0,22.0,1,1,0,12.3
Status,1714786738000,32,21,6,24,1575420030,18.40,52.0,39.0,1,1,0,14.099999
Status,1714786738000,32,22,6,25,1575420030,14.40,144.0,64.0,1,1,0,10.099999
Status,1714786738000,32,23,6,3,1176450050,18.30,327.0,72.0,0,1,0,12.999999
Status,1714786738000,32,24,6,5,1176450050,14.00,108.0,47.0,0,1,0,8.7
Status,1714786738000,32,25,6,8,1176450050,16.40,303.0,22.0,0,1,0,11.099999
Status,1714786738000,32,26,6,24,1176450050,16.90,52.0,39.0,0,1,0,11.599999
Status,1714786738000,32,27,6,25,1176450050,10.80,144.0,64.0,0,1,0,5.5
Raw,1714786738440,38233617000000,18,,-1398783722823158945,-0.44124603271484375,61.918697610963136,-1.3729418420524726,19.502328765290383,23,5,0.0,23567,524356362890370,106,19.0,296.839111328125,1.9884999990463257,16,0.0,0.0,1575420030,,,,0,,6,0.59,14.7,-1447.067138671875,26.679561614990234,,,C,40962381982075
Fix,GPS,41.3893366600,2.1134982900,159.3946533203125,0.0,11.01818,,1714786739000,0.53225935,,41038277438778,5.896887,0,,,
Status,1714786739000,33,18,6,3,1575420030,19.80,327.0,72.0,0,1,0,15.499999
Status,1714786739000,33,19,6,5,1575420030,19.00,108.0,47.0,1,1,0,14.7
Status,1714786739000,33,20,6,8,1575420030,16.60,303.0,22.0,1,1,0,12.3
Status,1714786739000,33,21,6,24,1575420030,18.40,52.0,39.0,1,1,0,14.099999
Status,1714786739000,33,22,6,25,1575420030,14.40,144.0,64.0,1,1,0,10.099999
Status,1714786739000,33,23,6,3,1176450050,18.30,327.0,72.0,0,1,0,12.999999
Status,1714786739000,33,24,6,5,1176450050,14.00,108.0,47.0,0,1,0,8.7
Status,1714786739000,33,25,6,8,1176450050,17.50,303.0,22.0,0,1,0,12.2
Status,1714786739000,33,26,6,24,1176450050,16.90,52.0,39.0,0,1,0,11.599999
Status,1714786739000,33,27,6,25,1176450050,10.80,144.0,64.0,0,1,0,5.5
Fix,GPS,41.3893366600,2.1134983000,159.385009765625,0.0,11.202665,,1714786740000,0.48332185,,41039277438778,5.7502127,0,,,
Status,1714786740000,33,18,6,3,1575420030,19.80,327.0,72.0,0,1,0,15.499999
Status,1714786740000,33,19,6,5,1575420030,19.00,108.0,47.0,1,1,0,14.7
Status,1714786740000,33,20,6,8,1575420030,16.60,303.0,22.0,1,1,0,12.3
Status,1714786740000,33,21,6,24,1575420030,18.40,52.0,39.0,1,1,0,14.099999
Status,1714786740000,33,22,6,25,1575420030,14.40,144.0,64.0,1,1,0,10.099999
Status,1714786740000,33,23,6,3,1176450050,18.30,327.0,72.0,0,1,0,12.999999
Status,1714786740000,33,24,6,5,1176450050,14.00,108.0,47.0,0,1,0,8.7
Status,1714786740000,33,25,6,8,1176450050,17.50,303.0,22.0,0,1,0,12.2
Status,1714786740000,33,26,6,24,1176450050,16.90,52.0,39.0,0,1,0,11.599999
Status,1714786740000,33,27,6,25,1176450050,10.80,144.0,64.0,0,1,0,5.5
Fix,GPS,41.3893366500,2.1134983000,159.38140869140625,0.0,11.479677,,1714786741000,0.51478153,,41040277438778,5.722055,0,,,
Status,1714786741000,31,18,6,3,1575420030,19.80,327.0,72.0,0,1,0,15.499999
Status,1714786741000,31,19,6,5,1575420030,19.00,108.0,47.0,1,1,0,14.7
Status,1714786741000,31,20,6,8,1575420030,16.60,303.0,22.0,0,1,0,12.3
Status,1714786741000,31,21,6,24,1575420030,18.40,52.0,39.0,0,1,0,14.099999
Status,1714786741000,31,22,6,25,1575420030,14.40,144.0,64.0,1,1,0,10.099999
Status,1714786741000,31,23,6,3,1176450050,18.30,327.0,72.0,0,1,0,12.999999
Status,1714786741000,31,24,6,5,1176450050,14.00,108.0,47.0,0,1,0,8.7
Status,1714786741000,31,25,6,8,1176450050,18.40,303.0,22.0,0,1,0,13.099999
Fix,GPS,41.3893366400,2.1134983100,159.37353515625,0.0,11.809734,,1714786742000,0.35846898,,41041277438778,5.702635,0,,,
Status,1714786742000,31,18,6,3,1575420030,19.80,327.0,72.0,0,1,0,15.499999
Status,1714786742000,31,19,6,5,1575420030,19.00,108.0,47.0,1,1,0,14.7
Status,1714786742000,31,20,6,8,1575420030,16.60,303.0,22.0,0,1,0,12.3
Status,1714786742000,31,21,6,24,1575420030,18.40,52.0,39.0,0,1,0,14.099999
Status,1714786742000,31,22,6,25,1575420030,14.40,144.0,64.0,1,1,0,10.099999
Status,1714786742000,31,23,6,3,1176450050,18.30,327.0,72.0,0,1,0,12.999999
Status,1714786742000,31,24,6,5,1176450050,14.00,108.0,47.0,0,1,0,8.7
Status,1714786742000,31,25,6,8,1176450050,18.40,303.0,22.0,1,1,0,13.099999
Fix,GPS,41.3893366400,2.1134983100,159.37359619140625,0.0,12.155698,,1714786743000,0.37696153,,41042277438778,5.6852903,0,,,
Status,1714786743000,31,18,6,3,1575420030,10.00,327.0,72.0,0,1,0,5.7
Status,1714786743000,31,19,6,5,1575420030,19.00,108.0,47.0,1,1,0,14.7
Status,1714786743000,31,20,6,8,1575420030,16.60,303.0,22.0,0,1,0,12.3
Status,1714786743000,31,21,6,24,1575420030,18.40,52.0,39.0,0,1,0,14.099999
Status,1714786743000,31,22,6,25,1575420030,14.40,144.0,64.0,0,1,0,10.099999
Status,1714786743000,31,23,6,3,1176450050,18.30,327.0,72.0,0,1,0,12.999999
Status,1714786743000,31,24,6,5,1176450050,14.00,108.0,47.0,0,1,0,8.7
Status,1714786743000,31,25,6,8,1176450050,18.40,303.0,22.0,1,1,0,13.099999
Fix,GPS,41.3893366400,2.1134983100,159.3712158203125,0.0,11.864329,,1714786744000,0.46518815,,41043277438778,5.545989,0,,,
Raw,1714786743440,38238617000000,18,,-1398783722823158963,-0.21833133697509766,74.45052324328572,-0.8588753311071926,24.059584720877645,23,3,0.0,23567,524361361850579,181,10.0,-142.13986206054688,10.79699993133545,16,0.0,0.0,1575420030,,,,0,,6,0.82,5.7,-1447.067138671875,26.679561614990234,,,C,40967376112907
Status,1714786744000,31,18,6,3,1575420030,10.00,327.0,72.0,1,1,0,5.7
Status,1714786744000,31,19,6,5,1575420030,17.00,108.0,47.0,1,1,0,12.7
Status,1714786744000,31,20,6,8,1575420030,13.60,303.0,22.0,0,1,0,9.3
Status,1714786744000,31,21,6,24,1575420030,18.40,52.0,39.0,0,1,0,14.099999
Status,1714786744000,31,22,6,25,1575420030,14.40,144.0,64.0,0,1,0,10.099999
Status,1714786744000,31,23,6,3,1176450050,18.30,327.0,72.0,0,1,0,12.999999
Status,1714786744000,31,24,6,5,1176450050,14.00,108.0,47.0,0,1,0,8.7
Status,1714786744000,31,25,6,8,1176450050,18.40,303.0,22.0,1,1,0,13.099999
Fix,GPS,41.3893366400,2.1134983100,159.36962890625,0.0,11.889297,,1714786745000,0.46518815,,41044277438778,5.4002366,0,,,
Raw,1714786744440,38239617000000,18,,-1398783722823158969,-0.9387550354003906,66.19411578867584,-1.979332365532527,19.11053308565543,23,5,0.0,23567,524362362884356,139,17.0,297.53369140625,5.208499908447266,16,0.0,0.0,1575420030,,,,0,,6,0.74,12.7,-1447.067138671875,26.679561614990234,,,C,40968376365407
Raw,1714786744440,38239617000000,18,,-1398783722823158969,-0.9387550354003906,66.19411578867584,-1.979332365532527,19.11053308565543,23,8,0.0,23567,524362351436490,181,13.6,-452.79425048828125,8.760000228881836,16,0.0,0.0,1575420030,,,,0,,6,0.74,9.3,-1447.067138671875,26.679561614990234,,,C,40968376365407
Status,1714786745000,30,17,6,3,1575420030,10.00,327.0,72.0,1,1,0,5.7
Status,1714786745000,30,18,6,5,1575420030,17.00,108.0,47.0,1,1,0,12.7
Status,1714786745000,30,19,6,8,1575420030,13.60,303.0,22.0,1,1,0,9.3
Status,1714786745000,30,20,6,24,1575420030,18.40,52.0,39.0,0,1,0,14.099999
Status,1714786745000,30,21,6,25,1575420030,14.40,144.0,64.0,0,1,0,10.099999
Status,1714786745000,30,22,6,3,1176450050,18.30,327.0,72.0,0,1,0,12.999999
Status,1714786745000,30,23,6,5,1176450050,14.00,108.0,47.0,0,1,0,8.7
Status,1714786745000,30,24,6,8,1176450050,17.30,303.0,22.0,0,1,0,11.999999
Fix,GPS,41.3893366400,2.1134983100,159.3675537109375,0.0,12.11218,,1714786746000,0.52392745,,41045277438778,5.379394,0,,,
Status,1714786746000,31,17,6,2,1575420030,12.20,196.0,23.0,0,1,0,7.8999996
Status,1714786746000,31,18,6,3,1575420030,10.00,327.0,72.0,1,1,0,5.7
Status,1714786746000,31,19,6,5,1575420030,17.00,108.0,47.0,1,1,0,12.7
Status,1714786746000,31,20,6,8,1575420030,13.60,303.0,22.0,1,1,0,9.3
Status,1714786746000,31,21,6,24,1575420030,18.40,52.0,39.0,0,1,0,14.099999
Status,1714786746000,31,22,6,25,1575420030,14.40,144.0,64.0,0,1,0,10.099999
Status,1714786746000,31,23,6,3,1176450050,18.30,327.0,72.0,0,1,0,12.999999
Status,1714786746000,31,24,6,5,1176450050,14.00,108.0,47.0,0,1,0,8.7
Status,1714786746000,31,25,6,8,1176450050,17.30,303.0,22.0,0,1,0,11.999999
Raw,1714786746440,38241617000000,18,,-1398783722823158968,-0.12081336975097656,71.50344754336402,1.2902744026474278,22.74730793678916,23,2,0.0,23567,524364352396670,181,12.2,-571.0427856445312,10.41550064086914,16,0.0,0.0,1575420030,,,,0,,6,0.75,7.8999999999999995,-1447.067138671875,26.679561614990234,,,C,40970372975666
Fix,GPS,41.3893366400,2.1134983200,159.35693359375,0.0,12.381936,,1714786747000,0.29546574,,41046277438778,5.401664,0,,,
Status,1714786747000,31,17,6,2,1575420030,12.20,196.0,23.0,1,1,0,7.8999996
Status,1714786747000,31,18,6,3,1575420030,10.00,327.0,72.0,1,1,0,5.7
Status,1714786747000,31,19,6,5,1575420030,17.00,108.0,47.0,1,1,0,12.7
Status,1714786747000,31,20,6,8,1575420030,13.60,303.0,22.0,1,1,0,9.3
Status,1714786747000,31,21,6,24,1575420030,18.40,52.0,39.0,0,1,0,14.099999
Status,1714786747000,31,22,6,25,1575420030,14.40,144.0,64.0,0,1,0,10.099999
Status,1714786747000,31,23,6,3,1176450050,18.30,327.0,72.0,0,1,0,12.999999
Status,1714786747000,31,24,6,5,1176450050,14.00,108.0,47.0,0,1,0,8.7
Status,1714786747000,31,25,6,8,1176450050,17.30,303.0,22.0,0,1,0,11.999999
Fix,GPS,41.3893358200,2.1134978200,159.297607421875,0.0,11.018293,,1714786748000,0.4472136,,41047277438778,5.3336477,0,,,
Status,1714786748000,31,17,6,2,1575420030,12.20,196.0,23.0,1,1,0,7.8999996
Status,1714786748000,31,18,6,3,1575420030,10.00,327.0,72.0,1,1,0,5.7
Status,1714786748000,31,19,6,5,1575420030,17.00,108.0,47.0,1,1,0,12.7
Status,1714786748000,31,20,6,8,1575420030,13.60,303.0,22.0,1,1,0,9.3
Status,1714786748000,31,21,6,24,1575420030,18.40,52.0,39.0,0,1,0,14.099999
Status,1714786748000,31,22,6,25,1575420030,14.40,144.0,64.0,0,1,0,10.099999
Status,1714786748000,31,23,6,3,1176450050,18.30,327.0,72.0,0,1,0,12.999999
Status,1714786748000,31,24,6,5,1176450050,14.00,108.0,47.0,0,1,0,8.7
Status,1714786748000,31,25,6,8,1176450050,18.40,303.0,22.0,0,1,0,13.099999
Fix,GPS,41.3893358200,2.1134978200,159.29815673828125,0.0,11.248417,,1714786749000,0.48754486,,41048277438778,5.4626837,0,,,
Status,1714786749000,31,17,6,2,1575420030,12.20,196.0,23.0,1,1,0,7.8999996
Status,1714786749000,31,18,6,3,1575420030,10.00,327.0,72.0,1,1,0,5.7
Status,1714786749000,31,19,6,5,1575420030,17.00,108.0,47.0,1,1,0,12.7
Status,1714786749000,31,20,6,8,1575420030,13.60,303.0,22.0,1,1,0,9.3
Status,1714786749000,31,21,6,24,1575420030,18.40,52.0,39.0,0,1,0,14.099999
Status,1714786749000,31,22,6,25,1575420030,14.40,144.0,64.0,0,1,0,10.099999
Status,1714786749000,31,23,6,3,1176450050,18.30,327.0,72.0,0,1,0,12.999999
Status,1714786749000,31,24,6,5,1176450050,14.00,108.0,47.0,0,1,0,8.7
Status,1714786749000,31,25,6,8,1176450050,22.30,303.0,22.0,0,1,0,17.0
Fix,GPS,41.3893358000,2.1134978400,159.2828369140625,0.0,11.36629,,1714786750000,0.41629317,,41049277438778,5.3340354,0,,,
Status,1714786750000,31,17,6,2,1575420030,12.20,196.0,23.0,1,1,0,7.8999996
Status,1714786750000,31,18,6,3,1575420030,10.00,327.0,72.0,0,1,0,5.7
Status,1714786750000,31,19,6,5,1575420030,15.50,108.0,47.0,1,1,0,11.2
Status,1714786750000,31,20,6,8,1575420030,13.60,303.0,22.0,0,1,0,9.3
Status,1714786750000,31,21,6,24,1575420030,18.40,52.0,39.0,0,1,0,14.099999
Status,1714786750000,31,22,6,25,1575420030,14.40,144.0,64.0,0,1,0,10.099999
Status,1714786750000,31,23,6,3,1176450050,18.30,327.0,72.0,0,1,0,12.999999
Status,1714786750000,31,24,6,5,1176450050,14.00,108.0,47.0,0,1,0,8.7
Status,1714786750000,31,25,6,8,1176450050,22.30,303.0,22.0,1,1,0,17.0
Raw,1714786750440,38245617000000,18,,-1398783722823158960,-0.07418632507324219,66.96387572446838,-0.44657984986889676,21.309488445095358,23,5,0.0,23567,524368362878381,159,15.5,297.857177734375,5.458499908447266,16,0.0,0.0,1575420030,,,,0,,6,0.52,11.2,-1447.067138671875,26.679561614990234,,,C,40974370848842
Fix,GPS,41.3893358000,2.1134978400,159.281005859375,0.0,11.645006,,1714786751000,0.44384682,,41050277438778,5.3345547,0,,,
Status,1714786751000,30,16,6,2,1575420030,12.20,196.0,23.0,1,1,0,7.8999996
Status,1714786751000,30,17,6,3,1575420030,10.00,327.0,72.0,0,1,0,5.7
Status,1714786751000,30,18,6,5,1575420030,15.50,108.0,47.0,1,1,0,11.2
Status,1714786751000,30,19,6,8,1575420030,13.60,303.0,22.0,0,1,0,9.3
Status,1714786751000,30,20,6,24,1575420030,18.40,52.0,39.0,0,1,0,14.099999
Status,1714786751000,30,21,6,25,1575420030,14.40,144.0,64.0,0,1,0,10.099999
Status,1714786751000,30,22,6,3,1176450050,18.30,327.0,72.0,0,1,0,12.999999
Status,1714786751000,30,23,6,5,1176450050,14.00,108.0,47.0,0,1,0,8.7
Status,1714786751000,30,24,6,8,1176450050,21.30,303.0,22.0,1,1,0,15.999999
Fix,GPS,41.3893357800,2.1134978700,159.2652587890625,0.0,11.84656,,1714786752000,0.47169906,,41051277438778,5.2578917,0,,,
Status,1714786752000,29,16,6,2,1575420030,12.20,196.0,23.0,1,1,0,7.8999996
Status,1714786752000,29,17,6,3,1575420030,10.00,327.0,72.0,0,1,0,5.7
Status,1714786752000,29,18,6,5,1575420030,15.50,108.0,47.0,1,1,0,11.2
Status,1714786752000,29,19,6,8,1575420030,15.20,303.0,22.0,0,1,0,10.9
Status,1714786752000,29,20,6,24,1575420030,18.40,52.0,39.0,0,1,0,14.099999
Status,1714786752000,29,21,6,25,1575420030,14.40,144.0,64.0,0,1,0,10.099999
Status,1714786752000,29,22,6,3,1176450050,18.30,327.0,72.0,0,1,0,12.999999
Status,1714786752000,29,23,6,8,1176450050,21.30,303.0,22.0,1,1,0,15.999999
Raw,1714786752440,38247617000000,18,,-1398783722823158958,-0.3605527877807617,71.49000884965062,0.8407912881962958,23.659056880280406,23,8,0.0,23567,524370351448619,181,15.2,-452.575439453125,6.960000514984131,16,0.0,0.0,1575420030,,,,0,,6,0.69,10.899999999999999,-1447.067138671875,26.679561614990234,,,C,40976377570664
Fix,GPS,41.3893354100,2.1134976800,159.24127197265625,0.0,11.442274,,1714786753000,0.78,,41052277438778,5.3045926,0,,,
Status,1714786753000,31,17,6,2,1575420030,12.20,196.0,23.0,0,1,0,7.8999996
Status,1714786753000,31,18,6,3,1575420030,10.00,327.0,72.0,0,1,0,5.7
Status,1714786753000,31,19,6,5,1575420030,15.50,108.0,47.0,1,1,0,11.2
Status,1714786753000,31,20,6,8,1575420030,15.20,303.0,22.0,1,1,0,10.9
Status,1714786753000,31,21,6,24,1575420030,18.40,52.0,39.0,0,1,0,14.099999
Status,1714786753000,31,22,6,25,1575420030,15.70,144.0,64.0,0,1,0,11.4
Status,1714786753000,31,23,6,3,1176450050,18.30,327.0,72.0,0,1,0,12.999999
Status,1714786753000,31,24,6,8,1176450050,21.30,303.0,22.0,0,1,0,15.999999
Status,1714786753000,31,25,6,25,1176450050,15.00,144.0,64.0,0,1,0,9.7
Raw,1714786753440,38248617000000,18,,-1398783722823158963,-0.7696743011474609,65.59375469805673,-0.5655367048140236,21.059344639955707,23,25,0.0,23567,524371361203236,159,15.7,-204.1375274658203,4.737000465393066,16,0.0,0.0,1575420030,,,,0,,6,0.79,11.399999999999999,-1447.067138671875,26.679561614990234,,,C,40977376382799
Fix,GPS,41.3893354100,2.1134976800,159.2423095703125,0.0,11.6495495,,1714786754000,0.9433981,,41053277438778,5.1424823,0,,,
Status,1714786754000,34,20,6,2,1575420030,15.50,196.0,24.0,0,1,0,11.2
Status,1714786754000,34,21,6,3,1575420030,10.00,329.0,73.0,0,1,0,5.7
Status,1714786754000,34,22,6,5,1575420030,18.50,109.0,47.0,1,1,0,14.2
Status,1714786754000,34,23,6,8,1575420030,15.20,303.0,23.0,1,1,0,10.9
Status,1714786754000,34,24,6,24,1575420030,18.40,52.0,38.0,0,1,0,14.099999
Status,1714786754000,34,25,6,25,1575420030,22.10,143.0,65.0,1,1,0,17.8
Status,1714786754000,34,26,6,5,1176450050,19.10,109.0,47.0,0,1,0,13.8
Status,1714786754000,34,27,6,8,1176450050,21.30,303.0,23.0,0,1,0,15.999999
Status,1714786754000,34,28,6,25,1176450050,15.00,143.0,65.0,0,1,0,9.7
Raw,1714786754440,38249617000000,18,,-1398783722823158966,-0.3028717041015625,69.39105514902622,-0.3285079910868704,21.826231963811054,23,2,0.0,23567,524372352411966,159,15.5,-570.5384521484375,6.955500602722168,16,0.0,0.0,1575420030,,,,0,,6,0.79,11.2,-1447.067138671875,26.679561614990234,,,C,40978380850403
Raw,1714786754440,38249617000000,18,,-1398783722823158966,-0.3028717041015625,69.39105514902622,-0.3285079910868704,21.826231963811054,23,5,0.0,23567,524372362874415,106,18.5,298.45660400390625,3.5885000228881836,16,0.0,0.0,1575420030,,,,0,,6,0.79,14.2,-1447.067138671875,26.679561614990234,,,C,40978380850403
Raw,1714786754440,38249617000000,18,,-1398783722823158966,-0.3028717041015625,69.39105514902622,-0.3285079910868704,21.826231963811054,23,25,0.0,23567,524372361203905,70,22.1,-203.79501342773438,1.0069999694824219,16,0.0,0.0,1575420030,,,,0,,6,0.79,17.8,-1447.067138671875,26.679561614990234,,,C,40978380850403
Fix,GPS,41.3893354000,2.1134976700,159.21429443359375,0.0,11.279596,,1714786755000,0.5247857,,41054277438778,5.2556458,0,,,
Status,1714786755000,30,18,6,2,1575420030,15.50,196.0,24.0,1,1,0,11.2
Status,1714786755000,30,19,6,3,1575420030,10.20,329.0,73.0,0,1,0,5.8999996
Status,1714786755000,30,20,6,5,1575420030,18.50,109.0,47.0,0,1,0,14.2
Status,1714786755000,30,21,6,8,1575420030,15.20,303.0,23.0,1,1,0,10.9
Status,1714786755000,30,22,6,24,1575420030,18.40,52.0,38.0,0,1,0,14.099999
Status,1714786755000,30,23,6,25,1575420030,22.10,143.0,65.0,1,1,0,17.8
Status,1714786755000,30,24,6,5,1176450050,19.10,109.0,47.0,1,1,0,13.8
Status,1714786755000,30,25,6,8,1176450050,21.30,303.0,23.0,0,1,0,15.999999
Status,1714786755000,30,26,6,25,1176450050,15.00,143.0,65.0,0,1,0,9.7
Raw,1714786755440,38250617000000,18,,-1398783722823158955,-0.7081460952758789,56.98525637853891,1.974610994258133,15.924639946110563,23,3,0.0,23567,524373361856304,181,10.2,-140.46527099609375,10.79699993133545,16,0.0,0.0,1575420030,,,,0,,6,0.82,5.8999999999999995,-1447.067138671875,26.679561614990234,,,C,40979377584882
Fix,GPS,41.3893354100,2.1134976700,159.215087890625,0.0,11.419208,,1714786756000,0.5470832,,41055277438778,5.465087,0,,,
Status,1714786756000,32,18,6,2,1575420030,15.50,196.0,24.0,1,1,0,11.2
Status,1714786756000,32,19,6,3,1575420030,10.20,329.0,73.0,1,1,0,5.8999996
Status,1714786756000,32,20,6,5,1575420030,20.70,109.0,47.0,0,1,0,16.400002
Status,1714786756000,32,21,6,8,1575420030,15.20,303.0,23.0,1,1,0,10.9
Status,1714786756000,32,22,6,24,1575420030,18.40,52.0,38.0,0,1,0,14.099999
Status,1714786756000,32,23,6,25,1575420030,22.10,143.0,65.0,1,1,0,17.8
Status,1714786756000,32,24,6,2,1176450050,18.10,196.0,24.0,0,1,0,12.8
Status,1714786756000,32,25,6,5,1176450050,19.10,109.0,47.0,1,1,0,13.8
Status,1714786756000,32,26,6,8,1176450050,21.30,303.0,23.0,0,1,0,15.999999
Status,1714786756000,32,27,6,25,1176450050,15.00,143.0,65.0,0,1,0,9.7
Raw,1714786756440,38251617000000,18,,-1398783722823158953,-0.44316959381103516,61.470702348742634,3.6030260033490284,17.42249662317457,23,5,0.0,23567,524374362872445,80,20.7,299.13214111328125,1.8984999656677246,16,0.0,0.0,1575420030,,,,0,,6,0.79,16.4,-1447.067138671875,26.679561614990234,,,C,40980381311912
Fix,GPS,41.3893352400,2.1134975700,159.1370849609375,0.0,11.457876,,1714786757000,0.7378347,,41056277438778,5.65016,0,,,
Status,1714786757000,32,18,6,2,1575420030,21.60,196.0,24.0,1,1,0,17.3
Status,1714786757000,32,19,6,3,1575420030,18.90,329.0,73.0,1,1,0,14.599999
Status,1714786757000,32,20,6,5,1575420030,20.70,109.0,47.0,1,1,0,16.400002
Status,1714786757000,32,21,6,8,1575420030,15.20,303.0,23.0,1,1,0,10.9
Status,1714786757000,32,22,6,24,1575420030,18.40,52.0,38.0,0,1,0,14.099999
Status,1714786757000,32,23,6,25,1575420030,22.10,143.0,65.0,1,1,0,17.8
Status,1714786757000,32,24,6,2,1176450050,18.10,196.0,24.0,0,1,0,12.8
Status,1714786757000,32,25,6,5,1176450050,19.10,109.0,47.0,0,1,0,13.8
Status,1714786757000,32,26,6,8,1176450050,21.30,303.0,23.0,0,1,0,15.999999
Status,1714786757000,32,27,6,25,1176450050,15.00,143.0,65.0,0,1,0,9.7
Raw,1714786757440,38252617000000,18,,-1398783722823158958,-0.4946632385253906,63.18466330412775,1.1437176463001324,16.976552002228132,23,2,0.0,23567,524375352417700,70,21.6,-570.2720947265625,2.5855000019073486,16,0.0,0.0,1575420030,,,,0,,6,0.82,17.3,-1447.067138671875,26.679561614990234,,,C,40981372095662
Raw,1714786757440,38252617000000,18,,-1398783722823158958,-0.4946632385253906,63.18466330412775,1.1437176463001324,16.976552002228132,23,3,0.0,23567,524375361857225,106,18.9,-141.07421875,2.0870001316070557,16,0.0,0.0,1575420030,,,,0,,6,0.82,14.599999999999998,-1447.067138671875,26.679561614990234,,,C,40981372095662
Fix,GPS,41.3893349900,2.1134975800,158.71612548828125,0.0,11.33808,,1714786758000,0.8850989,,41057277438778,5.6935525,0,,,
Status,1714786758000,31,17,6,2,1575420030,21.60,196.0,24.0,1,1,0,17.3
Status,1714786758000,31,18,6,3,1575420030,18.90,329.0,73.0,1,1,0,14.599999
Status,1714786758000,31,19,6,5,1575420030,20.70,109.0,47.0,1,1,0,16.400002
Status,1714786758000,31,20,6,8,1575420030,15.20,303.0,23.0,1,1,0,10.9
Status,1714786758000,31,21,6,25,1575420030,22.10,143.0,65.0,1,1,0,17.8
Status,1714786758000,31,22,6,2,1176450050,18.10,196.0,24.0,0,1,0,12.8
Status,1714786758000,31,23,6,5,1176450050,19.10,109.0,47.0,0,1,0,13.8
Status,1714786758000,31,24,6,8,1176450050,21.30,303.0,23.0,0,1,0,15.999999
Status,1714786758000,31,25,6,25,1176450050,15.00,143.0,65.0,0,1,0,9.7
Fix,GPS,41.3893348800,2.1134975300,158.6031494140625,0.0,11.211023,,1714786759000,0.9102197,,41058277438778,5.5653243,0,,,
Status,1714786759000,34,19,6,2,1575420030,21.60,196.0,24.0,1,1,0,17.3
Status,1714786759000,34,20,6,3,1575420030,22.30,329.0,73.0,1,1,0,18.0
Status,1714786759000,34,21,6,5,1575420030,19.60,109.0,47.0,1,1,0,15.3
Status,1714786759000,34,22,6,8,1575420030,15.50,303.0,23.0,0,1,0,11.2
Status,1714786759000,34,23,6,25,1575420030,17.80,143.0,65.0,1,1,0,13.499999
Status,1714786759000,34,24,6,2,1176450050,18.10,196.0,24.0,0,1,0,12.8
Status,1714786759000,34,25,6,3,1176450050,17.20,329.0,73.0,0,1,0,11.900001
Status,1714786759000,34,26,6,5,1176450050,17.20,109.0,47.0,0,1,0,11.900001
Status,1714786759000,34,27,6,8,1176450050,15.50,303.0,23.0,0,1,0,10.2
Status,1714786759000,34,28,6,25,1176450050,18.50,143.0,65.0,0,1,0,13.2
Raw,1714786759440,38254617000000,18,,-1398783722823158946,-0.42472267150878906,58.6969472351484,1.9136530748848244,15.273246187244917,23,3,0.0,23567,524377361858213,61,22.3,-140.69363403320312,1.7269999980926514,16,0.0,0.0,1575420030,,,,0,,6,0.8,18.0,-1447.067138671875,26.679561614990234,,,C,40983379322432
Raw,1714786759440,38254617000000,18,,-1398783722823158946,-0.42472267150878906,58.6969472351484,1.9136530748848244,15.273246187244917,23,5,0.0,23567,524377362869463,92,19.6,298.43756103515625,2.7685000896453857,16,0.0,0.0,1575420030,,,,0,,6,0.8,15.3,-1447.067138671875,26.679561614990234,,,C,40983379322432
Raw,1714786759440,38254617000000,18,,-1398783722823158946,-0.42472267150878906,58.6969472351484,1.9136530748848244,15.273246187244917,23,8,0.0,23567,524377351459149,159,15.5,-452.68011474609375,6.240000247955322,16,0.0,0.0,1575420030,,,,0,,6,0.8,11.2,-1447.067138671875,26.679561614990234,,,C,40983379322432
Raw,1714786759440,38254617000000,18,,-1398783722823158946,-0.42472267150878906,58.6969472351484,1.9136530748848244,15.273246187244917,23,25,0.0,23567,524377361207300,122,17.8,-203.19558715820312,4.487000465393066,16,0.0,0.0,1575420030,,,,0,,6,0.8,13.5,-1447.067138671875,26.679561614990234,,,C,40983379322432
Fix,GPS,41.3892443700,2.1135244900,161.1400146484375,1.64,11.041824,204.7,1714786760000,1.2553884,38.953552,41059277438778,5.07753,0,,,
Status,1714786760000,35,19,6,2,1575420030,21.60,196.0,24.0,1,1,0,17.3
Status,1714786760000,35,20,6,3,1575420030,25.80,329.0,73.0,1,1,0,21.5
Status,1714786760000,35,21,6,5,1575420030,19.60,109.0,47.0,1,1,0,15.3
Status,1714786760000,35,22,6,8,1575420030,15.50,303.0,23.0,1,1,0,11.2
Status,1714786760000,35,23,6,24,1575420030,20.70,52.0,38.0,0,1,0,16.400002
Status,1714786760000,35,24,6,25,1575420030,24.50,143.0,65.0,1,1,0,20.2
Status,1714786760000,35,25,6,2,1176450050,18.10,196.0,24.0,0,1,0,12.8
Status,1714786760000,35,26,6,3,1176450050,23.80,329.0,73.0,0,1,0,18.5
Status,1714786760000,35,27,6,5,1176450050,21.20,109.0,47.0,0,1,0,15.900001
Status,1714786760000,35,28,6,8,1176450050,15.50,303.0,23.0,0,1,0,10.2
Status,1714786760000,35,29,6,25,1176450050,24.80,143.0,65.0,0,1,0,19.5
Raw,1714786760440,38255617000000,18,,-1398783722823158930,-0.6145906448364258,58.59582597622648,0.2905145416540855,16.331774962780173,23,3,0.0,23567,524378361858651,40,25.8,-140.1417694091797,0.796999990940094,16,0.0,0.0,1575420030,,,,0,,6,0.85,21.5,-1447.067138671875,26.679561614990234,,,C,40984377714880
Raw,1714786760440,38255617000000,18,,-1398783722823158930,-0.6145906448364258,58.59582597622648,0.2905145416540855,16.331774962780173,23,24,0.0,23567,524378355423076,80,20.7,331.9482727050781,1.1799999475479126,16,0.0,0.0,1575420030,,,,0,,6,0.85,16.4,-1447.067138671875,26.679561614990234,,,C,40984377714880
Raw,1714786760440,38255617000000,18,,-1398783722823158930,-0.6145906448364258,58.59582597622648,0.2905145416540855,16.331774962780173,23,25,0.0,23567,524378361207995,46,24.5,-202.59616088867188,0.8569999933242798,16,0.0,0.0,1575420030,,,,0,,6,0.85,20.2,-1447.067138671875,26.679561614990234,,,C,40984377714880
Raw,1714786760440,38255617000000,18,,-1398783722823158930,-0.6145906448364258,58.59582597622648,0.2905145416540855,16.331774962780173,23,3,0.0,81935,524378361865032,12,23.8,-140.42298889160156,0.902999997138977,16,0.0,0.0,1176450050,,,,0,,6,3.46,18.5,-7840.7685546875,132.4391326904297,,,Q,40984377714880
Raw,1714786760440,38255617000000,18,,-1398783722823158930,-0.6145906448364258,58.59582597622648,0.2905145416540855,16.331774962780173,23,25,0.0,81935,524378361214361,11,24.8,-202.77940368652344,0.8330000042915344,16,0.0,0.0,1176450050,,,,0,,6,3.46,19.5,-7840.7685546875,132.4391326904297,,,Q,40984377714880
Fix,GPS,41.3891573100,2.1134903800,161.836181640625,0.23,10.532426,55.6,1714786761000,1.0678015,90.94023,41060277438778,4.7906094,0,,,
Status,1714786761000,37,20,6,2,1575420030,16.80,196.0,24.0,1,1,0,12.499999
Status,1714786761000,37,21,6,3,1575420030,21.10,329.0,73.0,0,1,0,16.8
Status,1714786761000,37,22,6,5,1575420030,23.20,109.0,47.0,0,1,0,18.900002
Status,1714786761000,37,23,6,8,1575420030,15.50,303.0,23.0,1,1,0,11.2
Status,1714786761000,37,24,6,24,1575420030,21.10,52.0,38.0,1,1,0,16.8
Status,1714786761000,37,25,6,25,1575420030,20.10,143.0,65.0,0,1,0,15.8
Status,1714786761000,37,26,6,2,1176450050,18.10,196.0,24.0,0,1,0,12.8
Status,1714786761000,37,27,6,3,1176450050,24.60,329.0,73.0,1,1,0,19.3
Status,1714786761000,37,28,6,5,1176450050,27.10,109.0,47.0,1,1,0,21.8
Status,1714786761000,37,29,6,8,1176450050,15.50,303.0,23.0,0,1,0,10.2
Status,1714786761000,37,30,6,25,1176450050,23.80,143.0,65.0,1,1,0,18.5
Raw,1714786761440,38256617000000,18,,-1398783722823158917,-0.8740978240966797,55.762451665941626,0.9493360054694135,14.148791982280732,23,2,0.0,23567,524379352425296,139,16.8,-569.3681640625,3.885499954223633,16,0.0,0.0,1575420030,,,,0,,6,0.79,12.5,-1447.067138671875,26.679561614990234,,,C,40985374470921
Raw,1714786761440,38256617000000,18,,-1398783722823158917,-0.8740978240966797,55.762451665941626,0.9493360054694135,14.148791982280732,23,3,0.0,23567,524379361859102,80,21.1,-140.07518005371094,1.0869998931884766,16,0.0,0.0,1575420030,,,,0,,6,0.79,16.8,-1447.067138671875,26.679561614990234,,,C,40985374470921
Raw,1714786761440,38256617000000,18,,-1398783722823158917,-0.8740978240966797,55.762451665941626,0.9493360054694135,14.148791982280732,23,5,0.0,23567,524379362867458,61,23.2,298.9228210449219,1.7085000276565552,16,0.0,0.0,1575420030,,,,0,,6,0.79,18.9,-1447.067138671875,26.679561614990234,,,C,40985374470921
Raw,1714786761440,38256617000000,18,,-1398783722823158917,-0.8740978240966797,55.762451665941626,0.9493360054694135,14.148791982280732,23,24,0.0,23567,524379355421963,80,21.1,332.28131103515625,1.0899999141693115,16,0.0,0.0,1575420030,,,,0,,6,0.79,16.8,-1447.067138671875,26.679561614990234,,,C,40985374470921
Raw,1714786761440,38256617000000,18,,-1398783722823158917,-0.8740978240966797,55.762451665941626,0.9493360054694135,14.148791982280732,23,25,0.0,23567,524379361208638,92,20.1,-202.64373779296875,1.1769999265670776,16,0.0,0.0,1575420030,,,,0,,6,0.79,15.8,-1447.067138671875,26.679561614990234,,,C,40985374470921
Raw,1714786761440,38256617000000,18,,-1398783722823158917,-0.8740978240966797,55.762451665941626,0.9493360054694135,14.148791982280732,23,3,0.0,81935,524379361865507,11,24.6,-140.16815185546875,0.8330000042915344,16,0.0,0.0,1176450050,,,,0,,6,3.1,19.3,-7840.7841796875,126.88848876953125,,,Q,40985374470921
Raw,1714786761440,38256617000000,18,,-1398783722823158917,-0.8740978240966797,55.762451665941626,0.9493360054694135,14.148791982280732,23,5,0.0,81935,524379362873836,9,27.1,298.97698974609375,0.6544999480247498,16,0.0,0.0,1176450050,,,,0,,6,3.1,21.8,-7840.7841796875,126.88848876953125,,,Q,40985374470921
Raw,1714786761440,38256617000000,18,,-1398783722823158917,-0.8740978240966797,55.762451665941626,0.9493360054694135,14.148791982280732,23,25,0.0,81935,524379361215019,12,23.8,-202.25701904296875,0.902999997138977,16,0.0,0.0,1176450050,,,,0,,6,3.1,18.5,-7840.7841796875,126.88848876953125,,,Q,40985374470921
Fix,GPS,41.3891226100,2.1134808200,163.0892333984375,0.0,10.780373,,1714786762000,0.36069378,,41061277438778,5.7352514,0,,,
Status,1714786762000,38,20,6,2,1575420030,16.80,196.0,24.0,1,1,0,12.499999
Status,1714786762000,38,21,6,3,1575420030,21.20,329.0,73.0,0,1,0,16.900002
Status,1714786762000,38,22,6,5,1575420030,21.80,109.0,47.0,0,1,0,17.5
Status,1714786762000,38,23,6,8,1575420030,15.50,303.0,23.0,1,1,0,11.2
Status,1714786762000,38,24,6,24,1575420030,21.10,52.0,38.0,1,1,0,16.8
Status,1714786762000,38,25,6,25,1575420030,20.10,143.0,65.0,0,1,0,15.8
Status,1714786762000,38,26,6,2,1176450050,18.10,196.0,24.0,0,1,0,12.8
Status,1714786762000,38,27,6,3,1176450050,24.60,329.0,73.0,1,1,0,19.3
Status,1714786762000,38,28,6,5,1176450050,22.40,109.0,47.0,1,1,0,17.099998
Status,1714786762000,38,29,6,8,1176450050,15.50,303.0,23.0,0,1,0,10.2
Status,1714786762000,38,30,6,24,1176450050,16.20,52.0,38.0,0,1,0,10.900001
Status,1714786762000,38,31,6,25,1176450050,23.80,143.0,65.0,1,1,0,18.5
Raw,1714786762440,38257617000000,18,,-1398783722823158913,-0.8954877853393555,60.604426835197955,0.8042949510596406,14.894952750671683,23,3,0.0,23567,524380361859568,80,21.2,-140.2845001220703,1.0869998931884766,16,0.0,0.0,1575420030,,,,0,,6,0.85,16.9,-1447.067138671875,26.679561614990234,,,C,40986381808369
Raw,1714786762440,38257617000000,18,,-1398783722823158913,-0.8954877853393555,60.604426835197955,0.8042949510596406,14.894952750671683,23,5,0.0,23567,524380362866459,70,21.8,298.875244140625,1.088499903678894,16,0.0,0.0,1575420030,,,,0,,6,0.85,17.5,-1447.067138671875,26.679561614990234,,,C,40986381808369
Raw,1714786762440,38257617000000,18,,-1398783722823158913,-0.8954877853393555,60.604426835197955,0.8042949510596406,14.894952750671683,23,5,0.0,81935,524380362872853,14,22.4,298.6075134277344,0.984499990940094,16,0.0,0.0,1176450050,,,,0,,6,3.33,17.099999999999998,-7840.8154296875,135.8153076171875,,,Q,40986381808369
Fix,GPS,41.3891268100,2.1134713700,162.5523681640625,0.0,10.706781,,1714786763000,0.4808326,,41062277438778,5.703177,0,,,
Status,1714786763000,38,20,6,2,1575420030,16.80,196.0,24.0,1,1,0,12.499999
Status,1714786763000,38,21,6,3,1575420030,21.20,329.0,73.0,1,1,0,16.900002
Status,1714786763000,38,22,6,5,1575420030,20.40,109.0,47.0,0,1,0,16.099998
Status,1714786763000,38,23,6,8,1575420030,15.50,303.0,23.0,1,1,0,11.2
Status,1714786763000,38,24,6,24,1575420030,21.10,52.0,38.0,1,1,0,16.8
Status,1714786763000,38,25,6,25,1575420030,20.10,143.0,65.0,0,1,0,15.8
Status,1714786763000,38,26,6,2,1176450050,18.10,196.0,24.0,0,1,0,12.8
Status,1714786763000,38,27,6,3,1176450050,24.60,329.0,73.0,0,1,0,19.3
Status,1714786763000,38,28,6,5,1176450050,22.40,109.0,47.0,1,1,0,17.099998
Status,1714786763000,38,29,6,8,1176450050,15.50,303.0,23.0,0,1,0,10.2
Status,1714786763000,38,30,6,24,1176450050,16.20,52.0,38.0,0,1,0,10.900001
Status,1714786763000,38,31,6,25,1176450050,23.80,143.0,65.0,1,1,0,18.5
Raw,1714786763440,38258617000000,18,,-1398783722823158916,-0.6671037673950195,60.80506864236668,1.8077640916748607,14.6331756075943,23,5,0.0,23567,524381362865474,80,20.4,298.46612548828125,1.1784999370574951,16,0.0,0.0,1575420030,,,,0,,6,0.79,16.099999999999998,-1447.067138671875,26.679561614990234,,,C,40987371737014
Fix,GPS,41.3891200800,2.1134639300,162.4498291015625,0.0,10.770054,,1714786764000,0.67119294,,41063277438778,5.774479,0,,,
Status,1714786764000,38,20,6,2,1575420030,16.80,196.0,24.0,1,1,0,12.499999
Status,1714786764000,38,21,6,3,1575420030,21.20,329.0,73.0,1,1,0,16.900002
Status,1714786764000,38,22,6,5,1575420030,20.40,109.0,47.0,1,1,0,16.099998
Status,1714786764000,38,23,6,8,1575420030,15.50,303.0,23.0,1,1,0,11.2
Status,1714786764000,38,24,6,24,1575420030,21.10,52.0,38.0,1,1,0,16.8
Status,1714786764000,38,25,6,25,1575420030,20.10,143.0,65.0,0,1,0,15.8
Status,1714786764000,38,26,6,2,1176450050,18.10,196.0,24.0,0,1,0,12.8
Status,1714786764000,38,27,6,3,1176450050,24.60,329.0,73.0,0,1,0,19.3
Status,1714786764000,38,28,6,5,1176450050,22.40,109.0,47.0,0,1,0,17.099998
Status,1714786764000,38,29,6,8,1176450050,15.50,303.0,23.0,0,1,0,10.2
Status,1714786764000,38,30,6,24,1176450050,16.20,52.0,38.0,0,1,0,10.900001
Status,1714786764000,38,31,6,25,1176450050,23.80,143.0,65.0,1,1,0,18.5
Fix,GPS,41.3891174600,2.1134613900,162.6761474609375,0.0,10.818515,,1714786765000,1.0470912,,41064277438778,5.8065853,0,,,
Status,1714786765000,38,20,6,2,1575420030,16.80,196.0,24.0,1,1,0,12.499999
Status,1714786765000,38,21,6,3,1575420030,21.20,329.0,73.0,1,1,0,16.900002
Status,1714786765000,38,22,6,5,1575420030,20.40,109.0,47.0,1,1,0,16.099998
Status,1714786765000,38,23,6,8,1575420030,15.50,303.0,23.0,1,1,0,11.2
Status,1714786765000,38,24,6,24,1575420030,21.10,52.0,38.0,1,1,0,16.8
Status,1714786765000,38,25,6,25,1575420030,20.10,143.0,65.0,0,1,0,15.8
Status,1714786765000,38,26,6,2,1176450050,18.10,196.0,24.0,0,1,0,12.8
Status,1714786765000,38,27,6,3,1176450050,24.60,329.0,73.0,0,1,0,19.3
Status,1714786765000,38,28,6,5,1176450050,22.40,109.0,47.0,0,1,0,17.099998
Status,1714786765000,38,29,6,8,1176450050,15.50,303.0,23.0,0,1,0,10.2
Status,1714786765000,38,30,6,24,1176450050,16.20,52.0,38.0,0,1,0,10.900001
Status,1714786765000,38,31,6,25,1176450050,23.80,143.0,65.0,1,1,0,18.5
Fix,GPS,41.3891152900,2.1134601900,162.74578857421875,0.0,11.105563,,1714786766000,0.9170605,,41065277438778,5.9151964,0,,,
Status,1714786766000,38,20,6,2,1575420030,16.80,196.0,24.0,1,1,0,12.499999
Status,1714786766000,38,21,6,3,1575420030,21.20,329.0,73.0,1,1,0,16.900002
Status,1714786766000,38,22,6,5,1575420030,20.40,109.0,47.0,1,1,0,16.099998
Status,1714786766000,38,23,6,8,1575420030,15.50,303.0,23.0,0,1,0,11.2
Status,1714786766000,38,24,6,24,1575420030,21.10,52.0,38.0,1,1,0,16.8
Status,1714786766000,38,25,6,25,1575420030,20.10,143.0,65.0,0,1,0,15.8
Status,1714786766000,38,26,6,2,1176450050,18.10,196.0,24.0,0,1,0,12.8
Status,1714786766000,38,27,6,3,1176450050,24.60,329.0,73.0,0,1,0,19.3
Status,1714786766000,38,28,6,5,1176450050,17.40,109.0,47.0,0,1,0,12.099999
Status,1714786766000,38,29,6,8,1176450050,15.50,303.0,23.0,0,1,0,10.2
Status,1714786766000,38,30,6,24,1176450050,16.20,52.0,38.0,0,1,0,10.900001
Status,1714786766000,38,31,6,25,1176450050,23.80,143.0,65.0,1,1,0,18.5
Fix,GPS,41.3891155200,2.1134598900,162.7178955078125,0.0,11.53786,,1714786767000,1.0123734,,41066277438778,6.048227,0,,,
Status,1714786767000,38,20,6,2,1575420030,16.80,196.0,24.0,1,1,0,12.499999
Status,1714786767000,38,21,6,3,1575420030,21.20,329.0,73.0,1,1,0,16.900002
Status,1714786767000,38,22,6,5,1575420030,20.40,109.0,47.0,1,1,0,16.099998
Status,1714786767000,38,23,6,8,1575420030,15.50,303.0,23.0,0,1,0,11.2
Status,1714786767000,38,24,6,24,1575420030,15.50,52.0,38.0,1,1,0,11.2
Status,1714786767000,38,25,6,25,1575420030,20.10,143.0,65.0,0,1,0,15.8
Status,1714786767000,38,26,6,2,1176450050,18.10,196.0,24.0,0,1,0,12.8
Status,1714786767000,38,27,6,3,1176450050,24.60,329.0,73.0,0,1,0,19.3
Status,1714786767000,38,28,6,5,1176450050,17.40,109.0,47.0,0,1,0,12.099999
Status,1714786767000,38,29,6,8,1176450050,15.70,303.0,23.0,0,1,0,10.4
Status,1714786767000,38,30,6,24,1176450050,16.20,52.0,38.0,0,1,0,10.900001
Status,1714786767000,38,31,6,25,1176450050,23.80,143.0,65.0,1,1,0,18.5
Raw,1714786767440,38262617000000,18,,-1398783722823158913,-0.10572624206542969,110.81472621299326,0.39455765797210984,25.026322420068006,23,24,0.0,23567,524385355415340,159,15.5,333.052001953125,5.460000038146973,16,0.0,0.0,1575420030,,,,0,,6,0.79,11.2,-1447.067138671875,26.679561614990234,,,C,40991377138731
Fix,GPS,41.3891025100,2.1134368900,162.270751953125,0.0,11.378444,,1714786768000,1.443087,,41067277438778,6.1128225,0,,,
Status,1714786768000,38,20,6,2,1575420030,16.80,196.0,24.0,0,1,0,12.499999
Status,1714786768000,38,21,6,3,1575420030,21.20,329.0,73.0,1,1,0,16.900002
Status,1714786768000,38,22,6,5,1575420030,20.40,109.0,47.0,1,1,0,16.099998
Status,1714786768000,38,23,6,8,1575420030,15.50,303.0,23.0,0,1,0,11.2
Status,1714786768000,38,24,6,24,1575420030,15.50,52.0,38.0,1,1,0,11.2
Status,1714786768000,38,25,6,25,1575420030,20.10,143.0,65.0,0,1,0,15.8
Status,1714786768000,38,26,6,2,1176450050,18.10,196.0,24.0,0,1,0,12.8
Status,1714786768000,38,27,6,3,1176450050,24.60,329.0,73.0,0,1,0,19.3
Status,1714786768000,38,28,6,5,1176450050,17.40,109.0,47.0,0,1,0,12.099999
Status,1714786768000,38,29,6,8,1176450050,15.70,303.0,23.0,0,1,0,10.4
Status,1714786768000,38,30,6,24,1176450050,16.20,52.0,38.0,0,1,0,10.900001
Status,1714786768000,38,31,6,25,1176450050,23.80,143.0,65.0,0,1,0,18.5
Fix,GPS,41.3891025100,2.1134374100,162.6688232421875,0.0,11.743305,,1714786769000,1.09252,,41068277438778,6.223043,0,,,
Status,1714786769000,38,20,6,2,1575420030,13.90,196.0,24.0,0,1,0,9.599999
Status,1714786769000,38,21,6,3,1575420030,21.20,329.0,73.0,0,1,0,16.900002
Status,1714786769000,38,22,6,5,1575420030,20.40,109.0,47.0,1,1,0,16.099998
Status,1714786769000,38,23,6,8,1575420030,14.30,303.0,23.0,0,1,0,10.0
Status,1714786769000,38,24,6,24,1575420030,15.50,52.0,38.0,1,1,0,11.2
Status,1714786769000,38,25,6,25,1575420030,20.10,143.0,65.0,0,1,0,15.8
Status,1714786769000,38,26,6,2,1176450050,18.10,196.0,24.0,0,1,0,12.8
Status,1714786769000,38,27,6,3,1176450050,14.80,329.0,73.0,0,1,0,9.5
Status,1714786769000,38,28,6,5,1176450050,17.40,109.0,47.0,0,1,0,12.099999
Status,1714786769000,38,29,6,8,1176450050,15.70,303.0,23.0,0,1,0,10.4
Status,1714786769000,38,30,6,24,1176450050,16.20,52.0,38.0,0,1,0,10.900001
Status,1714786769000,38,31,6,25,1176450050,23.80,143.0,65.0,0,1,0,18.5
Raw,1714786769440,38264617000000,18,,-1398783722823158906,-0.012773513793945312,83.46294634975493,2.6605224366653375,19.974751397810437,23,2,0.0,23567,524387352440412,181,13.9,-569.5014038085938,7.315500259399414,16,0.0,0.0,1575420030,,,,0,,6,0.72,9.600000000000001,-1447.067138671875,26.679561614990234,,,C,40993380434042
Raw,1714786769440,38264617000000,18,,-1398783722823158906,-0.012773513793945312,83.46294634975493,2.6605224366653375,19.974751397810437,23,8,0.0,23567,524387351474273,181,14.3,-452.4993591308594,8.660000801086426,16,0.0,0.0,1575420030,,,,0,,6,0.72,10.0,-1447.067138671875,26.679561614990234,,,C,40993380434042
Fix,GPS,41.3891041200,2.1134364300,163.4493408203125,0.0,11.874353,,1714786770000,1.1108556,,41069277438778,5.785911,0,,,
Status,1714786770000,38,20,6,2,1575420030,13.90,196.0,24.0,1,1,0,9.599999
Status,1714786770000,38,21,6,3,1575420030,21.20,329.0,73.0,0,1,0,16.900002
Status,1714786770000,38,22,6,5,1575420030,20.40,109.0,47.0,0,1,0,16.099998
Status,1714786770000,38,23,6,8,1575420030,20.00,303.0,23.0,1,1,0,15.7
Status,1714786770000,38,24,6,24,1575420030,15.50,52.0,38.0,1,1,0,11.2
Status,1714786770000,38,25,6,25,1575420030,20.10,143.0,65.0,0,1,0,15.8
Status,1714786770000,38,26,6,2,1176450050,18.10,196.0,24.0,0,1,0,12.8
Status,1714786770000,38,27,6,3,1176450050,14.80,329.0,73.0,0,1,0,9.5
Status,1714786770000,38,28,6,5,1176450050,17.40,109.0,47.0,0,1,0,12.099999
Status,1714786770000,38,29,6,8,1176450050,18.90,303.0,23.0,0,1,0,13.599999
Status,1714786770000,38,30,6,24,1176450050,16.20,52.0,38.0,0,1,0,10.900001
Status,1714786770000,38,31,6,25,1176450050,23.80,143.0,65.0,0,1,0,18.5
Raw,1714786770440,38265617000000,18,,-1398783722823158899,-0.02412891387939453,72.53065996337682,1.6132305525978945,18.949272817655018,23,8,0.0,23567,524388351475742,92,20.0,-451.93792724609375,1.1799999475479126,16,0.0,0.0,1575420030,,,,0,,6,0.69,15.7,-1447.067138671875,26.679561614990234,,,C,40994383576490
Fix,GPS,41.3891034300,2.1134363200,163.55084228515625,0.0,12.037377,,1714786771000,1.1108556,,41070277438778,5.5497565,0,,,
Status,1714786771000,39,21,6,2,1575420030,13.90,196.0,24.0,1,1,0,9.599999
Status,1714786771000,39,22,6,3,1575420030,21.20,329.0,73.0,0,1,0,16.900002
Status,1714786771000,39,23,6,5,1575420030,20.40,109.0,47.0,0,1,0,16.099998
Status,1714786771000,39,24,6,8,1575420030,20.00,303.0,23.0,1,1,0,15.7
Status,1714786771000,39,25,6,24,1575420030,15.50,52.0,38.0,1,1,0,11.2
Status,1714786771000,39,26,6,25,1575420030,20.10,143.0,65.0,0,1,0,15.8
Status,1714786771000,39,27,6,2,1176450050,18.10,196.0,24.0,0,1,0,12.8
Status,1714786771000,39,28,6,3,1176450050,14.80,329.0,73.0,0,1,0,9.5
Status,1714786771000,39,29,6,5,1176450050,17.40,109.0,47.0,0,1,0,12.099999
Status,1714786771000,39,30,6,8,1176450050,23.60,303.0,23.0,0,1,0,18.3
Status,1714786771000,39,31,6,24,1176450050,16.20,52.0,38.0,0,1,0,10.900001
Status,1714786771000,39,32,6,25,1176450050,23.80,143.0,65.0,0,1,0,18.5
Raw,1714786771440,38266617000000,18,,-1398783722823158894,-0.25575733184814453,67.89786857552826,2.5622158401270196,17.75371114675642,23,8,0.0,81935,524389351483663,12,23.6,-452.11590576171875,0.9479999542236328,16,0.0,0.0,1176450050,,,,0,,6,2.64,18.3,-7840.8466796875,149.6195831298828,,,Q,40995383003834
Fix,GPS,41.3891086600,2.1134260100,162.1676025390625,0.0,11.879789,,1714786772000,0.9660228,,41071277438778,5.419396,0,,,
Status,1714786772000,39,21,6,2,1575420030,13.90,196.0,24.0,1,1,0,9.599999
Status,1714786772000,39,22,6,3,1575420030,21.20,329.0,73.0,0,1,0,16.900002
Status,1714786772000,39,23,6,5,1575420030,20.40,109.0,47.0,0,1,0,16.099998
Status,1714786772000,39,24,6,8,1575420030,20.00,303.0,23.0,0,1,0,15.7
Status,1714786772000,39,25,6,24,1575420030,15.50,52.0,38.0,1,1,0,11.2
Status,1714786772000,39,26,6,25,1575420030,13.70,143.0,65.0,0,1,0,9.4
Status,1714786772000,39,27,6,2,1176450050,18.10,196.0,24.0,0,1,0,12.8
Status,1714786772000,39,28,6,3,1176450050,14.80,329.0,73.0,0,1,0,9.5
Status,1714786772000,39,29,6,5,1176450050,17.40,109.0,47.0,0,1,0,12.099999
Status,1714786772000,39,30,6,8,1176450050,23.60,303.0,23.0,1,1,0,18.3
Status,1714786772000,39,31,6,24,1176450050,16.20,52.0,38.0,0,1,0,10.900001
Status,1714786772000,39,32,6,25,1176450050,23.80,143.0,65.0,0,1,0,18.5
Raw,1714786772440,38267617000000,18,,-1398783722823158889,-0.9791240692138672,63.739345932845026,1.4196124788021405,16.799771073632098,23,25,0.0,23567,524390361216020,181,13.7,-201.66371154785156,9.53700065612793,16,0.0,0.0,1575420030,,,,0,,6,0.62,9.399999999999999,-1447.067138671875,26.679561614990234,,,C,40996382835969
