NMEA,$GPGSV,2,1,08,13,74,057,15,15,61,307,22,17,12,105,16,19,04,130,22,1*67,1714786722964
NMEA,$GPGSV,2,2,08,22,59,090,12,23,14,320,21,24,30,265,23,30,23,064,16,1*6E,1714786722964
NMEA,$GPGSV,1,1,02,24,30,265,18,30,23,064,21,8*61,1714786722964
NMEA,$GLGSV,1,1,02,80,49,032,16,71,56,327,19,1*72,1714786722964
NMEA,$GAGSV,1,1,04,03,72,327,16,05,47,108,15,08,22,303,19,24,39,052,13,7*72,1714786722964
NMEA,$GAGSV,2,1,05,03,72,327,16,05,47,108,20,08,22,303,19,24,39,052,17,1*74,1714786722964
NMEA,$GAGSV,2,2,05,25,64,144,13,1*46,1714786722964
NMEA,$GBGSV,1,1,03,37,08,050,21,36,61,232,16,22,47,307,23,1*4F,1714786722964
NMEA,$GBGSV,1,1,04,19,68,175,13,22,47,307,18,36,61,232,14,37,08,050,20,5*70,1714786722964
NMEA,$GNGSA,A,3,13,15,17,19,23,24,30,,,,,,1.2,1.0,0.7,1*38,1714786722970
NMEA,$GNGSA,A,3,71,80,,,,,,,,,,,1.2,1.0,0.7,2*39,1714786722970
NMEA,$GNGSA,A,3,08,24,,,,,,,,,,,1.2,1.0,0.7,3*38,1714786722970
NMEA,$GNGSA,A,3,22,37,,,,,,,,,,,1.2,1.0,0.7,4*35,1714786722970
NMEA,$GNVTG,,T,,M,0.0,N,0.0,K,A*3D,1714786722970
NMEA,$GNDTM,P90,,0000.000026,S,00000.000000,E,0.982,W84*59,1714786722970
NMEA,$GNRMC,013843.00,A,4123.360218,N,00206.809884,E,0.0,,040524,1.4,W,A,V*69,1714786722970
NMEA,$GNGNS,013843.00,4123.360218,N,00206.809884,E,AAAANN,13,1.0,108.8,51.0,,,V*22,1714786722970
NMEA,$GNGGA,013843.00,4123.360218,N,00206.809884,E,1,12,1.0,108.8,M,51.0,M,,*73,1714786722970
NMEA,$GPGSV,2,1,08,13,74,057,15,15,61,307,21,17,12,105,16,19,04,130,23,1*65,1714786723969
NMEA,$GPGSV,2,2,08,22,59,090,12,23,14,320,21,24,30,265,23,30,23,064,16,1*6E,1714786723969
NMEA,$GPGSV,1,1,02,24,30,265,18,30,23,064,21,8*61,1714786723969
NMEA,$GLGSV,1,1,02,80,49,032,16,71,56,327,21,1*79,1714786723969
NMEA,$GAGSV,1,1,03,03,72,327,15,08,22,303,22,24,39,052,13,7*45,1714786723969
NMEA,$GAGSV,2,1,05,03,72,327,16,05,47,108,20,08,22,303,19,24,39,052,17,1*74,1714786723969
NMEA,$GAGSV,2,2,05,25,64,144,13,1*46,1714786723969
NMEA,$GBGSV,1,1,03,37,08,050,21,36,61,232,16,22,47,307,29,1*45,1714786723969
NMEA,$GBGSV,1,1,04,19,68,175,13,22,47,307,19,36,61,232,14,37,08,050,17,5*75,1714786723969
NMEA,$GNGSA,A,3,13,15,17,19,23,24,30,,,,,,1.2,1.0,0.7,1*38,1714786723984
NMEA,$GNGSA,A,3,71,,,,,,,,,,,,1.2,1.0,0.7,2*31,1714786723984
NMEA,$GNGSA,A,3,03,08,24,,,,,,,,,,1.2,1.0,0.7,3*3B,1714786723984
NMEA,$GNGSA,A,3,22,37,,,,,,,,,,,1.2,1.0,0.7,4*35,1714786723984
NMEA,$GNVTG,,T,,M,0.0,N,0.0,K,A*3D,1714786723984
NMEA,$GNDTM,P90,,0000.000026,S,00000.000000,E,0.982,W84*59,1714786723984
NMEA,$GNRMC,013844.00,A,4123.360231,N,00206.809871,E,0.0,,040524,1.4,W,A,V*6F,1714786723984
NMEA,$GNGNS,013844.00,4123.360231,N,00206.809871,E,AAAANN,13,1.0,109.1,51.0,,,V*2C,1714786723984
NMEA,$GNGGA,013844.00,4123.360231,N,00206.809871,E,1,12,1.0,109.1,M,51.0,M,,*7D,1714786723984
NMEA,$GPGSV,2,1,08,13,74,057,18,15,61,307,21,17,12,105,16,19,04,130,23,1*68,1714786724970
NMEA,$GPGSV,2,2,08,22,59,090,12,23,14,320,21,24,30,265,22,30,23,064,16,1*6F,1714786724970
NMEA,$GPGSV,1,1,02,24,30,265,18,30,23,064,21,8*61,1714786724970
NMEA,$GLGSV,1,1,02,80,49,032,16,71,56,327,22,1*7A,1714786724970
NMEA,$GAGSV,1,1,03,03,72,327,15,08,22,303,22,24,39,052,13,7*45,1714786724970
NMEA,$GAGSV,2,1,05,03,72,327,16,05,47,108,20,08,22,303,21,24,39,052,17,1*7F,1714786724970
NMEA,$GAGSV,2,2,05,25,64,144,11,1*44,1714786724970
NMEA,$GBGSV,1,1,04,37,08,050,21,36,61,232,16,22,47,307,27,07,15,047,15,1*78,1714786724970
NMEA,$GBGSV,1,1,04,19,68,175,13,22,47,307,24,36,61,232,14,37,08,050,22,5*7D,1714786724970
NMEA,$GNGSA,A,3,13,15,17,19,23,24,30,,,,,,1.2,1.0,0.7,1*38,1714786724983
NMEA,$GNGSA,A,3,71,,,,,,,,,,,,1.2,1.0,0.7,2*31,1714786724983
NMEA,$GNGSA,A,3,03,08,24,,,,,,,,,,1.2,1.0,0.7,3*3B,1714786724983
NMEA,$GNGSA,A,3,07,22,37,,,,,,,,,,1.2,1.0,0.7,4*32,1714786724983
NMEA,$GNVTG,,T,,M,0.0,N,0.0,K,A*3D,1714786724983
NMEA,$GNDTM,P90,,0000.000026,S,00000.000000,E,0.982,W84*59,1714786724983
NMEA,$GNRMC,013845.00,A,4123.360232,N,00206.809871,E,0.0,,040524,1.4,W,A,V*6D,1714786724983
NMEA,$GNGNS,013845.00,4123.360232,N,00206.809871,E,AAAANN,14,1.0,109.1,51.0,,,V*29,1714786724983
NMEA,$GNGGA,013845.00,4123.360232,N,00206.809871,E,1,12,1.0,109.1,M,51.0,M,,*7F,1714786724983
NMEA,$GPGSV,2,1,08,13,74,057,18,15,61,307,20,17,12,105,16,19,04,130,23,1*69,1714786725969
NMEA,$GPGSV,2,2,08,22,59,090,15,23,14,320,21,24,30,265,22,30,23,064,16,1*68,1714786725969
NMEA,$GPGSV,1,1,02,24,30,265,18,30,23,064,21,8*61,1714786725969
NMEA,$GLGSV,1,1,02,80,49,032,16,71,56,327,22,1*7A,1714786725969
NMEA,$GAGSV,1,1,03,03,72,327,15,08,22,303,19,24,39,052,13,7*4D,1714786725969
NMEA,$GAGSV,2,1,05,03,72,327,15,05,47,108,20,08,22,303,26,24,39,052,17,1*7B,1714786725969
NMEA,$GAGSV,2,2,05,25,64,144,11,1*44,1714786725969
NMEA,$GBGSV,1,1,04,37,08,050,21,36,61,232,16,22,47,307,30,07,15,047,15,1*7E,1714786725969
NMEA,$GBGSV,1,1,04,19,68,175,14,22,47,307,25,36,61,232,14,37,08,050,22,5*7B,1714786725969
NMEA,$GIGSV,1,1,01,09,07,129,17,1*4E,1714786725969
NMEA,$GNGSA,A,3,13,15,17,19,22,23,24,30,,,,,1.2,0.9,0.7,1*30,1714786725988
NMEA,$GNGSA,A,3,71,,,,,,,,,,,,1.2,0.9,0.7,2*39,1714786725988
NMEA,$GNGSA,A,3,03,08,24,,,,,,,,,,1.2,0.9,0.7,3*33,1714786725988
NMEA,$GNGSA,A,3,07,22,37,,,,,,,,,,1.2,0.9,0.7,4*3A,1714786725988
NMEA,$GNVTG,,T,,M,0.0,N,0.0,K,A*3D,1714786725988
NMEA,$GNDTM,P90,,0000.000026,S,00000.000000,E,0.982,W84*59,1714786725988
NMEA,$GNRMC,013846.00,A,4123.360232,N,00206.809870,E,0.0,,040524,1.4,W,A,V*6F,1714786725988
NMEA,$GNGNS,013846.00,4123.360232,N,00206.809870,E,AAAANA,15,0.9,109.1,51.0,,,V*2D,1714786725988
NMEA,$GNGGA,013846.00,4123.360232,N,00206.809870,E,1,12,0.9,109.1,M,51.0,M,,*75,1714786725988
NMEA,$GPGSV,3,1,09,13,74,057,18,14,45,060,15,15,61,307,20,17,12,105,16,1*60,1714786726971
NMEA,$GPGSV,3,2,09,19,04,130,23,22,59,090,15,23,14,320,19,24,30,265,21,1*68,1714786726971
NMEA,$GPGSV,3,3,09,30,23,064,16,1*5A,1714786726971
NMEA,$GPGSV,1,1,02,24,30,265,18,30,23,064,21,8*61,1714786726971
NMEA,$GLGSV,1,1,02,80,49,032,16,71,56,327,22,1*7A,1714786726971
NMEA,$GAGSV,1,1,03,03,72,327,18,08,22,303,19,24,39,052,13,7*40,1714786726971
NMEA,$GAGSV,2,1,05,03,72,327,15,05,47,108,20,08,22,303,26,24,39,052,17,1*7B,1714786726971
NMEA,$GAGSV,2,2,05,25,64,144,11,1*44,1714786726971
NMEA,$GBGSV,2,1,05,37,08,050,21,36,61,232,16,22,47,307,29,20,21,147,17,1*75,1714786726971
NMEA,$GBGSV,2,2,05,07,15,047,15,1*47,1714786726971
NMEA,$GBGSV,1,1,04,19,68,175,14,22,47,307,27,36,61,232,14,37,08,050,22,5*79,1714786726971
NMEA,$GIGSV,1,1,01,09,07,129,17,1*4E,1714786726971
NMEA,$GNGSA,A,3,13,14,15,17,19,22,23,24,,,,,1.1,0.8,0.7,1*34,1714786726991
NMEA,$GNGSA,A,3,71,,,,,,,,,,,,1.1,0.8,0.7,2*3B,1714786726991
NMEA,$GNGSA,A,3,03,08,,,,,,,,,,,1.1,0.8,0.7,3*37,1714786726991
NMEA,$GNGSA,A,3,07,20,22,37,,,,,,,,,1.1,0.8,0.7,4*3A,1714786726991
NMEA,$GNVTG,,T,,M,0.0,N,0.0,K,A*3D,1714786726991
NMEA,$GNDTM,P90,,0000.000026,S,00000.000000,E,0.982,W84*59,1714786726991
NMEA,$GNRMC,013847.00,A,4123.360233,N,00206.809872,E,0.0,,040524,1.4,W,A,V*6D,1714786726991
NMEA,$GNGNS,013847.00,4123.360233,N,00206.809872,E,AAAANA,15,0.8,109.1,51.0,,,V*2E,1714786726991
NMEA,$GNGGA,013847.00,4123.360233,N,00206.809872,E,1,12,0.8,109.1,M,51.0,M,,*76,1714786726991
NMEA,$GPGSV,2,1,08,13,74,057,18,14,45,060,15,15,61,307,20,17,12,105,16,1*60,1714786727969
NMEA,$GPGSV,2,2,08,19,04,130,21,22,59,090,15,23,14,320,19,24,30,265,21,1*6A,1714786727969
NMEA,$GPGSV,1,1,02,24,30,265,18,30,23,064,16,8*65,1714786727969
NMEA,$GLGSV,1,1,02,80,49,032,16,71,56,327,20,1*78,1714786727969
NMEA,$GAGSV,1,1,03,03,72,327,18,08,22,303,21,24,39,052,13,7*4B,1714786727969
NMEA,$GAGSV,2,1,05,03,72,327,15,05,47,108,20,08,22,303,26,24,39,052,17,1*7B,1714786727969
NMEA,$GAGSV,2,2,05,25,64,144,11,1*44,1714786727969
NMEA,$GBGSV,2,1,05,37,08,050,21,36,61,232,16,22,47,307,29,20,21,147,22,1*73,1714786727969
NMEA,$GBGSV,2,2,05,07,15,047,15,1*47,1714786727969
NMEA,$GBGSV,1,1,04,19,68,175,14,22,47,307,26,36,61,232,14,37,08,050,22,5*78,1714786727969
NMEA,$GIGSV,1,1,01,09,07,129,17,1*4E,1714786727969
NMEA,$GNGSA,A,3,13,14,15,17,19,22,23,24,,,,,1.1,0.8,0.7,1*34,1714786727980
NMEA,$GNGSA,A,3,71,,,,,,,,,,,,1.1,0.8,0.7,2*3B,1714786727980
NMEA,$GNGSA,A,3,03,08,,,,,,,,,,,1.1,0.8,0.7,3*37,1714786727980
NMEA,$GNGSA,A,3,07,20,22,37,,,,,,,,,1.1,0.8,0.7,4*3A,1714786727980
NMEA,$GNVTG,,T,,M,0.0,N,0.0,K,A*3D,1714786727980
NMEA,$GNDTM,P90,,0000.000026,S,00000.000000,E,0.982,W84*59,1714786727980
NMEA,$GNRMC,013848.00,A,4123.360238,N,00206.809866,E,0.0,,040524,1.4,W,A,V*6C,1714786727980
NMEA,$GNGNS,013848.00,4123.360238,N,00206.809866,E,AAAANA,15,0.8,109.2,51.0,,,V*2C,1714786727980
NMEA,$GNGGA,013848.00,4123.360238,N,00206.809866,E,1,12,0.8,109.2,M,51.0,M,,*74,1714786727980
NMEA,$GPGSV,2,1,08,13,74,057,18,14,45,060,15,15,61,307,21,17,12,105,16,1*61,1714786728969
NMEA,$GPGSV,2,2,08,19,04,130,21,22,59,090,19,23,14,320,19,24,30,265,20,1*67,1714786728969
NMEA,$GPGSV,1,1,02,24,30,265,18,30,23,064,16,8*65,1714786728969
NMEA,$GLGSV,1,1,02,80,49,032,16,71,56,327,20,1*78,1714786728969
NMEA,$GAGSV,1,1,03,03,72,327,20,08,22,303,22,24,39,052,13,7*43,1714786728969
NMEA,$GAGSV,2,1,05,03,72,327,15,05,47,108,14,08,22,303,27,24,39,052,17,1*7D,1714786728969
NMEA,$GAGSV,2,2,05,25,64,144,11,1*44,1714786728969
NMEA,$GBGSV,2,1,05,37,08,050,21,36,61,232,16,22,47,307,30,20,21,147,22,1*7B,1714786728969
NMEA,$GBGSV,2,2,05,07,15,047,15,1*47,1714786728969
NMEA,$GBGSV,1,1,04,19,68,175,19,22,47,307,26,36,61,232,14,37,08,050,22,5*75,1714786728969
NMEA,$GIGSV,1,1,01,09,07,129,17,1*4E,1714786728969
NMEA,$GNGSA,A,3,13,14,15,19,22,23,24,,,,,,1.1,0.8,0.7,1*32,1714786728986
NMEA,$GNGSA,A,3,71,,,,,,,,,,,,1.1,0.8,0.7,2*3B,1714786728986
NMEA,$GNGSA,A,3,03,08,,,,,,,,,,,1.1,0.8,0.7,3*37,1714786728986
NMEA,$GNGSA,A,3,07,20,22,37,,,,,,,,,1.1,0.8,0.7,4*3A,1714786728986
NMEA,$GNVTG,,T,,M,0.0,N,0.0,K,A*3D,1714786728986
NMEA,$GNDTM,P90,,0000.000026,S,00000.000000,E,0.982,W84*59,1714786728986
NMEA,$GNRMC,013849.00,A,4123.360237,N,00206.809866,E,0.0,,040524,1.4,W,A,V*62,1714786728986
NMEA,$GNGNS,013849.00,4123.360237,N,00206.809866,E,AAAANA,14,0.8,109.2,51.0,,,V*23,1714786728986
NMEA,$GNGGA,013849.00,4123.360237,N,00206.809866,E,1,12,0.8,109.2,M,51.0,M,,*7A,1714786728986
NMEA,$GPGSV,2,1,08,13,74,057,18,14,45,060,15,15,61,307,22,17,12,105,16,1*62,1714786729971
NMEA,$GPGSV,2,2,08,19,04,130,21,22,59,090,19,23,14,320,19,24,30,265,22,1*65,1714786729971
NMEA,$GPGSV,1,1,02,24,30,265,18,30,23,064,18,8*6B,1714786729971
NMEA,$GLGSV,1,1,02,80,49,032,14,71,56,327,20,1*7A,1714786729971
NMEA,$GAGSV,1,1,03,03,72,327,22,08,22,303,22,24,39,052,13,7*41,1714786729971
NMEA,$GAGSV,2,1,05,03,72,327,18,05,47,108,14,08,22,303,28,24,39,052,17,1*7F,1714786729971
NMEA,$GAGSV,2,2,05,25,64,144,11,1*44,1714786729971
NMEA,$GBGSV,2,1,05,37,08,050,21,36,61,232,16,22,47,307,29,20,21,147,20,1*71,1714786729971
NMEA,$GBGSV,2,2,05,07,15,047,15,1*47,1714786729971
NMEA,$GBGSV,1,1,04,19,68,175,22,22,47,307,26,36,61,232,14,37,08,050,22,5*7D,1714786729971
NMEA,$GIGSV,1,1,01,09,07,129,17,1*4E,1714786729971
NMEA,$GNGSA,A,3,13,14,15,19,22,23,24,30,,,,,1.0,0.8,0.7,1*30,1714786729983
NMEA,$GNGSA,A,3,71,80,,,,,,,,,,,1.0,0.8,0.7,2*32,1714786729983
NMEA,$GNGSA,A,3,03,08,,,,,,,,,,,1.0,0.8,0.7,3*36,1714786729983
NMEA,$GNGSA,A,3,07,19,20,22,37,,,,,,,,1.0,0.8,0.7,4*33,1714786729983
NMEA,$GNVTG,,T,,M,0.0,N,0.0,K,A*3D,1714786729983
NMEA,$GNDTM,P90,,0000.000026,S,00000.000000,E,0.982,W84*59,1714786729983
NMEA,$GNRMC,013850.00,A,4123.360237,N,00206.809866,E,0.0,,040524,1.4,W,A,V*6A,1714786729983
NMEA,$GNGNS,013850.00,4123.360237,N,00206.809866,E,AAAANA,17,0.8,109.2,51.0,,,V*28,1714786729983
NMEA,$GNGGA,013850.00,4123.360237,N,00206.809866,E,1,12,0.8,109.2,M,51.0,M,,*72,1714786729983
NMEA,$GPGSV,2,1,08,13,74,057,18,14,45,060,15,15,61,307,22,17,12,105,16,1*62,1714786730966
NMEA,$GPGSV,2,2,08,19,04,130,21,22,59,090,19,23,14,320,19,24,30,265,22,1*65,1714786730966
NMEA,$GPGSV,1,1,02,24,30,265,18,30,23,064,18,8*6B,1714786730966
NMEA,$GLGSV,1,1,02,80,48,032,14,71,56,327,19,1*71,1714786730966
NMEA,$GAGSV,1,1,03,03,72,327,22,08,22,303,19,24,39,052,13,7*49,1714786730966
NMEA,$GAGSV,2,1,05,03,72,327,18,05,47,108,14,08,22,303,26,24,39,052,17,1*71,1714786730966
NMEA,$GAGSV,2,2,05,25,64,144,11,1*44,1714786730966
NMEA,$GBGSV,2,1,05,37,08,050,21,36,61,232,16,22,47,307,30,20,21,147,20,1*79,1714786730966
NMEA,$GBGSV,2,2,05,07,15,047,15,1*47,1714786730966
NMEA,$GBGSV,1,1,04,19,68,175,22,22,47,307,25,36,61,232,14,37,08,050,22,5*7E,1714786730966
NMEA,$GIGSV,1,1,01,09,07,129,17,1*4E,1714786730966
NMEA,$GNGSA,A,3,14,15,19,22,23,24,30,,,,,,1.2,0.9,0.7,1*31,1714786730982
NMEA,$GNGSA,A,3,71,80,,,,,,,,,,,1.2,0.9,0.7,2*31,1714786730982
NMEA,$GNGSA,A,3,03,08,,,,,,,,,,,1.2,0.9,0.7,3*35,1714786730982
NMEA,$GNGSA,A,3,19,20,22,,,,,,,,,,1.2,0.9,0.7,4*33,1714786730982
NMEA,$GNVTG,,T,,M,0.0,N,0.0,K,A*3D,1714786730982
NMEA,$GNDTM,P90,,0000.000026,S,00000.000000,E,0.982,W84*59,1714786730982
NMEA,$GNRMC,013851.00,A,4123.360237,N,00206.809866,E,0.0,,040524,1.4,W,A,V*6B,1714786730982
NMEA,$GNGNS,013851.00,4123.360237,N,00206.809866,E,AAAANA,14,0.9,109.2,51.0,,,V*2B,1714786730982
NMEA,$GNGGA,013851.00,4123.360237,N,00206.809866,E,1,12,0.9,109.2,M,51.0,M,,*72,1714786730982
NMEA,$GPGSV,2,1,08,13,74,057,18,14,45,060,15,15,61,307,22,17,12,105,16,1*62,1714786731969
NMEA,$GPGSV,2,2,08,19,04,130,22,22,59,090,19,23,14,320,19,24,30,265,23,1*67,1714786731969
NMEA,$GPGSV,1,1,02,24,30,265,18,30,23,064,18,8*6B,1714786731969
NMEA,$GLGSV,1,1,02,80,48,032,14,71,56,327,25,1*7E,1714786731969
NMEA,$GAGSV,1,1,03,03,72,327,20,08,22,303,19,24,39,052,13,7*4B,1714786731969
NMEA,$GAGSV,2,1,05,03,72,327,18,05,47,108,14,08,22,303,26,24,39,052,17,1*71,1714786731969
NMEA,$GAGSV,2,2,05,25,64,144,11,1*44,1714786731969
NMEA,$GBGSV,2,1,05,37,08,050,21,36,61,232,16,22,47,307,28,20,21,147,20,1*70,1714786731969
NMEA,$GBGSV,2,2,05,07,15,047,15,1*47,1714786731969
NMEA,$GBGSV,1,1,04,19,68,175,22,22,47,307,23,36,61,232,14,37,08,050,22,5*78,1714786731969
NMEA,$GIGSV,1,1,01,09,07,129,17,1*4E,1714786731969
NMEA,$GNGSA,A,3,14,15,19,22,23,24,30,,,,,,1.2,0.9,0.7,1*31,1714786731984
NMEA,$GNGSA,A,3,71,80,,,,,,,,,,,1.2,0.9,0.7,2*31,1714786731984
NMEA,$GNGSA,A,3,03,08,,,,,,,,,,,1.2,0.9,0.7,3*35,1714786731984
NMEA,$GNGSA,A,3,19,20,22,,,,,,,,,,1.2,0.9,0.7,4*33,1714786731984
NMEA,$GNVTG,,T,,M,0.0,N,0.0,K,A*3D,1714786731984
NMEA,$GNDTM,P90,,0000.000026,S,00000.000000,E,0.982,W84*59,1714786731984
NMEA,$GNRMC,013852.00,A,4123.360248,N,00206.809857,E,0.0,,040524,1.4,W,A,V*62,1714786731984
NMEA,$GNGNS,013852.00,4123.360248,N,00206.809857,E,AAAANN,14,0.9,109.5,51.0,,,V*2A,1714786731984
NMEA,$GNGGA,013852.00,4123.360248,N,00206.809857,E,1,12,0.9,109.5,M,51.0,M,,*7C,1714786731984
NMEA,$GPGSV,2,1,08,13,74,057,18,14,45,060,15,15,61,307,22,17,12,105,16,1*62,1714786732968
NMEA,$GPGSV,2,2,08,19,04,130,22,22,59,090,19,23,14,320,19,24,30,265,23,1*67,1714786732968
NMEA,$GPGSV,1,1,02,24,30,265,18,30,23,064,17,8*64,1714786732968
NMEA,$GLGSV,1,1,02,80,48,032,14,71,56,327,25,1*7E,1714786732968
NMEA,$GAGSV,1,1,03,03,72,327,20,08,22,303,19,24,39,052,13,7*4B,1714786732968
NMEA,$GAGSV,2,1,05,03,72,327,18,05,47,108,14,08,22,303,26,24,39,052,17,1*71,1714786732968
NMEA,$GAGSV,2,2,05,25,64,144,11,1*44,1714786732968
NMEA,$GBGSV,2,1,05,37,08,050,17,36,61,232,16,22,47,307,27,20,21,147,20,1*7A,1714786732968
NMEA,$GBGSV,2,2,05,07,15,047,15,1*47,1714786732968
NMEA,$GBGSV,1,1,04,19,68,175,22,22,47,307,23,36,61,232,14,37,08,050,19,5*70,1714786732968
NMEA,$GIGSV,1,1,01,09,07,129,17,1*4E,1714786732968
NMEA,$GNGSA,A,3,15,19,22,24,30,,,,,,,,1.1,0.9,0.7,1*36,1714786732975
NMEA,$GNGSA,A,3,71,80,,,,,,,,,,,1.1,0.9,0.7,2*32,1714786732975
NMEA,$GNGSA,A,3,03,08,,,,,,,,,,,1.1,0.9,0.7,3*36,1714786732975
NMEA,$GNGSA,A,3,19,20,22,37,,,,,,,,,1.1,0.9,0.7,4*34,1714786732975
NMEA,$GNVTG,,T,,M,0.0,N,0.0,K,A*3D,1714786732975
NMEA,$GNDTM,P90,,0000.000026,S,00000.000000,E,0.982,W84*59,1714786732975
NMEA,$GNRMC,013853.00,A,4123.360247,N,00206.809857,E,0.0,,040524,1.4,W,A,V*6C,1714786732975
NMEA,$GNGNS,013853.00,4123.360247,N,00206.809857,E,AAAANN,13,0.9,109.5,51.0,,,V*23,1714786732975
NMEA,$GNGGA,013853.00,4123.360247,N,00206.809857,E,1,12,0.9,109.5,M,51.0,M,,*72,1714786732975
NMEA,$GPGSV,2,1,08,13,74,057,18,14,45,060,15,15,61,307,22,17,12,105,15,1*61,1714786733963
NMEA,$GPGSV,2,2,08,19,04,130,24,22,59,090,19,23,14,320,16,24,30,265,23,1*6E,1714786733963
NMEA,$GPGSV,1,1,02,24,30,265,18,30,23,064,22,8*62,1714786733963
NMEA,$GLGSV,1,1,02,80,48,032,14,71,56,327,25,1*7E,1714786733963
NMEA,$GAGSV,1,1,03,03,72,327,20,08,22,303,19,24,39,052,13,7*4B,1714786733963
NMEA,$GAGSV,2,1,05,03,72,327,18,05,47,108,14,08,22,303,26,24,39,052,17,1*71,1714786733963
NMEA,$GAGSV,2,2,05,25,64,144,11,1*44,1714786733963
NMEA,$GBGSV,1,1,04,37,08,050,17,22,47,307,23,20,21,147,20,07,15,047,15,1*7E,1714786733963
NMEA,$GBGSV,1,1,04,19,68,175,22,22,47,307,23,36,61,232,14,37,08,050,28,5*72,1714786733963
NMEA,$GIGSV,1,1,01,09,07,129,17,1*4E,1714786733963
NMEA,$GNGSA,A,3,15,17,19,22,23,24,30,,,,,,1.1,0.8,0.7,1*30,1714786733971
NMEA,$GNGSA,A,3,71,80,,,,,,,,,,,1.1,0.8,0.7,2*33,1714786733971
NMEA,$GNGSA,A,3,03,08,,,,,,,,,,,1.1,0.8,0.7,3*37,1714786733971
NMEA,$GNGSA,A,3,19,20,22,37,,,,,,,,,1.1,0.8,0.7,4*35,1714786733971
NMEA,$GNVTG,,T,,M,0.0,N,0.0,K,A*3D,1714786733971
NMEA,$GNDTM,P90,,0000.000026,S,00000.000000,E,0.982,W84*59,1714786733971
NMEA,$GNRMC,013854.00,A,4123.360243,N,00206.809861,E,0.0,,040524,1.4,W,A,V*6A,1714786733971
NMEA,$GNGNS,013854.00,4123.360243,N,00206.809861,E,AAAANN,15,0.8,109.4,51.0,,,V*23,1714786733971
NMEA,$GNGGA,013854.00,4123.360243,N,00206.809861,E,1,12,0.8,109.4,M,51.0,M,,*74,1714786733971
NMEA,$GPGSV,2,1,08,13,74,057,18,14,45,060,15,15,61,307,22,17,12,105,15,1*61,1714786734964
NMEA,$GPGSV,2,2,08,19,04,130,24,22,59,090,19,23,14,320,16,24,30,265,23,1*6E,1714786734964
NMEA,$GPGSV,1,1,02,24,30,265,13,30,23,064,22,8*69,1714786734964
NMEA,$GLGSV,1,1,02,80,48,032,14,71,56,327,25,1*7E,1714786734964
NMEA,$GAGSV,1,1,03,03,72,327,20,08,22,303,17,24,39,052,18,7*4E,1714786734964
NMEA,$GAGSV,2,1,05,03,72,327,18,05,47,108,14,08,22,303,26,24,39,052,17,1*71,1714786734964
NMEA,$GAGSV,2,2,05,25,64,144,11,1*44,1714786734964
NMEA,$GBGSV,1,1,04,37,08,050,17,22,47,307,23,20,21,147,20,07,15,047,15,1*7E,1714786734964
NMEA,$GBGSV,1,1,04,19,68,175,22,22,47,307,23,36,61,232,14,37,08,050,20,5*7A,1714786734964
NMEA,$GIGSV,1,1,01,09,07,129,17,1*4E,1714786734964
NMEA,$GNGSA,A,3,15,17,19,23,24,30,,,,,,,1.1,0.8,0.7,1*30,1714786734973
NMEA,$GNGSA,A,3,71,80,,,,,,,,,,,1.1,0.8,0.7,2*33,1714786734973
NMEA,$GNGSA,A,3,03,08,24,,,,,,,,,,1.1,0.8,0.7,3*31,1714786734973
NMEA,$GNGSA,A,3,19,20,22,37,,,,,,,,,1.1,0.8,0.7,4*35,1714786734973
NMEA,$GNVTG,,T,,M,0.0,N,0.0,K,A*3D,1714786734973
NMEA,$GNDTM,P90,,0000.000026,S,00000.000000,E,0.982,W84*59,1714786734973
NMEA,$GNRMC,013855.00,A,4123.360236,N,00206.809868,E,0.0,,040524,1.4,W,A,V*60,1714786734973
NMEA,$GNGNS,013855.00,4123.360236,N,00206.809868,E,AAAANN,15,0.8,109.2,51.0,,,V*2F,1714786734973
NMEA,$GNGGA,013855.00,4123.360236,N,00206.809868,E,1,12,0.8,109.2,M,51.0,M,,*78,1714786734973
NMEA,$GPGSV,3,1,09,13,74,057,18,14,45,060,15,15,61,307,22,17,12,105,15,1*61,1714786735965
NMEA,$GPGSV,3,2,09,19,04,130,30,22,59,090,19,23,14,320,16,24,30,265,23,1*6B,1714786735965
NMEA,$GPGSV,3,3,09,30,23,064,16,1*5A,1714786735965
NMEA,$GPGSV,1,1,02,24,30,265,13,30,23,064,22,8*69,1714786735965
NMEA,$GLGSV,1,1,02,80,48,032,14,71,56,327,25,1*7E,1714786735965
NMEA,$GAGSV,1,1,03,03,72,327,20,08,22,303,17,24,39,052,18,7*4E,1714786735965
NMEA,$GAGSV,2,1,05,03,72,327,18,05,47,108,14,08,22,303,16,24,39,052,17,1*72,1714786735965
NMEA,$GAGSV,2,2,05,25,64,144,11,1*44,1714786735965
NMEA,$GBGSV,1,1,04,37,08,050,23,22,47,307,23,20,21,147,20,07,15,047,15,1*79,1714786735965
NMEA,$GBGSV,1,1,04,19,68,175,22,22,47,307,16,36,61,232,14,37,08,050,22,5*7E,1714786735965
NMEA,$GIGSV,1,1,01,09,07,129,17,1*4E,1714786735965
NMEA,$GNGSA,A,3,17,19,23,24,30,,,,,,,,1.3,1.0,0.8,1*30,1714786735974
NMEA,$GNGSA,A,3,71,,,,,,,,,,,,1.3,1.0,0.8,2*3F,1714786735974
NMEA,$GNGSA,A,3,03,08,24,,,,,,,,,,1.3,1.0,0.8,3*35,1714786735974
NMEA,$GNGSA,A,3,22,37,,,,,,,,,,,1.3,1.0,0.8,4*3B,1714786735974
NMEA,$GNVTG,,T,,M,0.0,N,0.0,K,A*3D,1714786735974
NMEA,$GNDTM,P90,,0000.000026,S,00000.000000,E,0.982,W84*59,1714786735974
NMEA,$GNRMC,013856.00,A,4123.360230,N,00206.809874,E,0.0,,040524,1.4,W,A,V*68,1714786735974
NMEA,$GNGNS,013856.00,4123.360230,N,00206.809874,E,AAAANN,11,1.0,109.0,51.0,,,V*28,1714786735974
NMEA,$GNGGA,013856.00,4123.360230,N,00206.809874,E,1,11,1.0,109.0,M,51.0,M,,*78,1714786735974
NMEA,$GPGSV,3,1,09,13,74,057,14,14,45,060,15,15,61,307,22,17,12,105,19,1*61,1714786736970
NMEA,$GPGSV,3,2,09,19,04,130,28,22,59,090,19,23,14,320,16,24,30,265,23,1*62,1714786736970
NMEA,$GPGSV,3,3,09,30,23,064,16,1*5A,1714786736970
NMEA,$GPGSV,1,1,02,24,30,265,13,30,23,064,22,8*69,1714786736970
NMEA,$GLGSV,1,1,02,80,48,032,14,71,56,327,25,1*7E,1714786736970
NMEA,$GAGSV,1,1,04,03,72,327,20,08,22,303,17,24,39,052,18,25,64,144,14,7*78,1714786736970
NMEA,$GAGSV,2,1,05,03,72,327,18,05,47,108,14,08,22,303,16,24,39,052,17,1*72,1714786736970
NMEA,$GAGSV,2,2,05,25,64,144,11,1*44,1714786736970
NMEA,$GBGSV,1,1,04,37,08,050,23,22,47,307,20,20,21,147,17,07,15,047,15,1*7E,1714786736970
NMEA,$GBGSV,1,1,04,19,68,175,22,22,47,307,16,36,61,232,14,37,08,050,22,5*7E,1714786736970
NMEA,$GIGSV,1,1,01,09,07,129,17,1*4E,1714786736970
NMEA,$GNGSA,A,3,13,17,19,23,24,30,,,,,,,1.0,0.7,0.7,1*38,1714786736982
NMEA,$GNGSA,A,3,71,,,,,,,,,,,,1.0,0.7,0.7,2*35,1714786736982
NMEA,$GNGSA,A,3,03,08,24,25,,,,,,,,,1.0,0.7,0.7,3*38,1714786736982
NMEA,$GNGSA,A,3,07,20,22,37,,,,,,,,,1.0,0.7,0.7,4*34,1714786736982
NMEA,$GNVTG,,T,,M,0.0,N,0.0,K,A*3D,1714786736982
NMEA,$GNDTM,P90,,0000.000026,S,00000.000000,E,0.982,W84*59,1714786736982
NMEA,$GNRMC,013857.00,A,4123.360212,N,00206.809890,E,0.0,,040524,1.4,W,A,V*63,1714786736982
NMEA,$GNGNS,013857.00,4123.360212,N,00206.809890,E,AAAANN,15,0.7,108.6,51.0,,,V*26,1714786736982
NMEA,$GNGGA,013857.00,4123.360212,N,00206.809890,E,1,12,0.7,108.6,M,51.0,M,,*71,1714786736982
NMEA,$GPGSV,3,1,09,13,74,057,14,14,45,060,15,15,61,307,22,17,12,105,19,1*61,1714786737967
NMEA,$GPGSV,3,2,09,19,04,130,28,22,59,090,19,23,14,320,16,24,30,265,23,1*62,1714786737967
NMEA,$GPGSV,3,3,09,30,23,064,16,1*5A,1714786737967
NMEA,$GPGSV,1,1,02,24,30,265,13,30,23,064,22,8*69,1714786737967
NMEA,$GLGSV,1,1,02,80,48,032,14,71,56,327,25,1*7E,1714786737967
NMEA,$GAGSV,1,1,04,03,72,327,20,08,22,303,17,24,39,052,18,25,64,144,14,7*78,1714786737967
NMEA,$GAGSV,2,1,05,03,72,327,18,05,47,108,14,08,22,303,16,24,39,052,17,1*72,1714786737967
NMEA,$GAGSV,2,2,05,25,64,144,11,1*44,1714786737967
NMEA,$GBGSV,1,1,04,37,08,050,23,22,47,307,20,20,21,147,17,07,15,047,15,1*7E,1714786737967
NMEA,$GBGSV,1,1,04,19,68,175,22,22,47,307,16,36,61,232,14,37,08,050,22,5*7E,1714786737967
NMEA,$GIGSV,1,1,01,09,07,129,16,1*4F,1714786737967
NMEA,$GNGSA,A,3,13,17,19,23,30,,,,,,,,1.1,0.8,0.7,1*30,1714786737976
NMEA,$GNGSA,A,3,08,24,25,,,,,,,,,,1.1,0.8,0.7,3*35,1714786737976
NMEA,$GNGSA,A,3,07,20,22,37,,,,,,,,,1.1,0.8,0.7,4*3A,1714786737976
NMEA,$GNVTG,,T,,M,0.0,N,0.0,K,A*3D,1714786737976
NMEA,$GNDTM,P90,,0000.000026,S,00000.000000,E,0.982,W84*59,1714786737976
NMEA,$GNRMC,013858.00,A,4123.360205,N,00206.809896,E,0.0,,040524,1.4,W,A,V*6C,1714786737976
NMEA,$GNGNS,013858.00,4123.360205,N,00206.809896,E,ANAANA,12,0.8,108.4,51.0,,,V*23,1714786737976
NMEA,$GNGGA,013858.00,4123.360205,N,00206.809896,E,1,12,0.8,108.4,M,51.0,M,,*73,1714786737976
NMEA,$GPGSV,3,1,10,13,74,057,14,14,45,060,15,15,61,307,22,17,12,105,21,1*62,1714786738967
NMEA,$GPGSV,3,2,10,19,04,130,25,20,15,182,14,22,59,090,19,23,14,320,17,1*6B,1714786738967
NMEA,$GPGSV,3,3,10,24,30,265,23,30,23,064,16,1*67,1714786738967
NMEA,$GPGSV,1,1,02,24,30,265,13,30,23,064,22,8*69,1714786738967
NMEA,$GLGSV,1,1,02,80,48,032,14,71,56,327,25,1*7E,1714786738967
NMEA,$GAGSV,2,1,05,03,72,327,20,05,47,108,19,08,22,303,17,24,39,052,18,7*7C,1714786738967
NMEA,$GAGSV,2,2,05,25,64,144,14,7*47,1714786738967
NMEA,$GAGSV,2,1,05,03,72,327,18,05,47,108,14,08,22,303,16,24,39,052,17,1*72,1714786738967
NMEA,$GAGSV,2,2,05,25,64,144,11,1*44,1714786738967
NMEA,$GBGSV,1,1,04,37,08,050,23,22,47,307,20,20,21,147,17,07,15,047,15,1*7E,1714786738967
NMEA,$GBGSV,1,1,03,19,68,175,22,22,47,307,16,37,08,050,22,5*4D,1714786738967
NMEA,$GIGSV,1,1,01,09,07,129,24,1*4E,1714786738967
NMEA,$GNGSA,A,3,13,17,19,20,23,30,,,,,,,1.0,0.7,0.7,1*3C,1714786738978
NMEA,$GNGSA,A,3,05,08,24,25,,,,,,,,,1.0,0.7,0.7,3*3E,1714786738978
NMEA,$GNGSA,A,3,07,20,22,37,,,,,,,,,1.0,0.7,0.7,4*34,1714786738978
NMEA,$GNVTG,,T,,M,0.0,N,0.0,K,A*3D,1714786738978
NMEA,$GNDTM,P90,,0000.000026,S,00000.000000,E,0.982,W84*59,1714786738978
NMEA,$GNRMC,013859.00,A,4123.360200,N,00206.809897,E,0.0,,040524,1.4,W,A,V*69,1714786738978
NMEA,$GNGNS,013859.00,4123.360200,N,00206.809897,E,ANAANA,14,0.7,108.4,51.0,,,V*2F,1714786738978
NMEA,$GNGGA,013859.00,4123.360200,N,00206.809897,E,1,12,0.7,108.4,M,51.0,M,,*79,1714786738978
NMEA,$GPGSV,3,1,10,13,74,057,14,14,45,060,15,15,61,307,22,17,12,105,21,1*62,1714786739967
NMEA,$GPGSV,3,2,10,19,04,130,25,20,15,182,14,22,59,090,19,23,14,320,17,1*6B,1714786739967
NMEA,$GPGSV,3,3,10,24,30,265,23,30,23,064,16,1*67,1714786739967
NMEA,$GPGSV,1,1,02,24,30,265,17,30,23,064,22,8*6D,1714786739967
NMEA,$GLGSV,1,1,02,80,48,032,14,71,56,327,25,1*7E,1714786739967
NMEA,$GAGSV,2,1,05,03,72,327,20,05,47,108,19,08,22,303,17,24,39,052,18,7*7C,1714786739967
NMEA,$GAGSV,2,2,05,25,64,144,14,7*47,1714786739967
NMEA,$GAGSV,2,1,05,03,72,327,18,05,47,108,14,08,22,303,18,24,39,052,17,1*7C,1714786739967
NMEA,$GAGSV,2,2,05,25,64,144,11,1*44,1714786739967
NMEA,$GBGSV,1,1,04,37,08,050,23,22,47,307,19,20,21,147,20,07,15,047,15,1*70,1714786739967
NMEA,$GBGSV,1,1,04,19,68,175,22,20,21,147,14,22,47,307,16,37,08,050,22,5*7C,1714786739967
NMEA,$GIGSV,1,1,01,09,07,129,24,1*4E,1714786739967
NMEA,$GNGSA,A,3,13,17,19,20,23,30,,,,,,,1.0,0.7,0.7,1*3C,1714786739984
NMEA,$GNGSA,A,3,05,08,24,25,,,,,,,,,1.0,0.7,0.7,3*3E,1714786739984
NMEA,$GNGSA,A,3,07,20,22,37,,,,,,,,,1.0,0.7,0.7,4*34,1714786739984
NMEA,$GNVTG,,T,,M,0.0,N,0.0,K,A*3D,1714786739984
NMEA,$GNDTM,P90,,0000.000026,S,00000.000000,E,0.982,W84*59,1714786739984
NMEA,$GNRMC,013900.00,A,4123.360200,N,00206.809898,E,0.0,,040524,1.4,W,A,V*6B,1714786739984
NMEA,$GNGNS,013900.00,4123.360200,N,00206.809898,E,ANAANA,14,0.7,108.4,51.0,,,V*2D,1714786739984
NMEA,$GNGGA,013900.00,4123.360200,N,00206.809898,E,1,12,0.7,108.4,M,51.0,M,,*7B,1714786739984
NMEA,$GPGSV,3,1,10,13,74,057,14,14,45,060,15,15,61,307,22,17,12,105,20,1*63,1714786740967
NMEA,$GPGSV,3,2,10,19,04,130,22,20,15,182,14,22,59,090,13,23,14,320,17,1*66,1714786740967
NMEA,$GPGSV,3,3,10,24,30,265,23,30,23,064,16,1*67,1714786740967
NMEA,$GPGSV,1,1,02,24,30,265,17,30,23,064,22,8*6D,1714786740967
NMEA,$GLGSV,1,1,02,80,48,032,14,71,56,327,25,1*7E,1714786740967
NMEA,$GAGSV,2,1,05,03,72,327,20,05,47,108,19,08,22,303,17,24,39,052,18,7*7C,1714786740967
NMEA,$GAGSV,2,2,05,25,64,144,14,7*47,1714786740967
NMEA,$GAGSV,2,1,05,03,72,327,18,05,47,108,14,08,22,303,18,24,39,052,17,1*7C,1714786740967
NMEA,$GAGSV,2,2,05,25,64,144,11,1*44,1714786740967
NMEA,$GBGSV,1,1,04,37,08,050,23,22,47,307,19,20,21,147,20,07,15,047,15,1*70,1714786740967
NMEA,$GBGSV,1,1,04,19,68,175,22,20,21,147,14,22,47,307,16,37,08,050,22,5*7C,1714786740967
NMEA,$GIGSV,1,1,01,09,07,129,24,1*4E,1714786740967
NMEA,$GNGSA,A,3,13,17,19,20,22,23,30,,,,,,1.1,0.8,0.7,1*32,1714786740981
NMEA,$GNGSA,A,3,05,25,,,,,,,,,,,1.1,0.8,0.7,3*3E,1714786740981
NMEA,$GNGSA,A,3,07,20,22,37,,,,,,,,,1.1,0.8,0.7,4*3A,1714786740981
NMEA,$GNVTG,,T,,M,0.0,N,0.0,K,A*3D,1714786740981
NMEA,$GNDTM,P90,,0000.000026,S,00000.000000,E,0.982,W84*59,1714786740981
NMEA,$GNRMC,013901.00,A,4123.360199,N,00206.809898,E,0.0,,040524,1.4,W,A,V*69,1714786740981
NMEA,$GNGNS,013901.00,4123.360199,N,00206.809898,E,ANAANA,13,0.8,108.4,51.0,,,V*27,1714786740981
NMEA,$GNGGA,013901.00,4123.360199,N,00206.809898,E,1,12,0.8,108.4,M,51.0,M,,*76,1714786740981
NMEA,$GPGSV,3,1,10,13,74,057,14,14,45,060,15,15,61,307,14,17,12,105,20,1*66,1714786741967
NMEA,$GPGSV,3,2,10,19,04,130,22,20,15,182,14,22,59,090,13,23,14,320,17,1*66,1714786741967
NMEA,$GPGSV,3,3,10,24,30,265,23,30,23,064,16,1*67,1714786741967
NMEA,$GPGSV,1,1,02,24,30,265,17,30,23,064,22,8*6D,1714786741967
NMEA,$GLGSV,1,1,02,80,48,032,14,71,56,327,25,1*7E,1714786741967
NMEA,$GAGSV,2,1,05,03,72,327,20,05,47,108,19,08,22,303,17,24,39,052,18,7*7C,1714786741967
NMEA,$GAGSV,2,2,05,25,64,144,14,7*47,1714786741967
NMEA,$GAGSV,1,1,03,03,72,327,18,05,47,108,14,08,22,303,18,1*44,1714786741967
NMEA,$GBGSV,1,1,04,37,08,050,23,22,47,307,19,20,21,147,22,07,15,047,15,1*72,1714786741967
NMEA,$GBGSV,1,1,04,19,68,175,11,20,21,147,14,22,47,307,16,37,08,050,22,5*7C,1714786741967
NMEA,$GIGSV,1,1,01,09,07,129,24,1*4E,1714786741967
NMEA,$GNGSA,A,3,13,15,17,19,20,22,23,,,,,,1.1,0.8,0.7,1*35,1714786741983
NMEA,$GNGSA,A,3,80,,,,,,,,,,,,1.1,0.8,0.7,2*35,1714786741983
NMEA,$GNGSA,A,3,05,08,25,,,,,,,,,,1.1,0.8,0.7,3*36,1714786741983
NMEA,$GNGSA,A,3,07,20,22,,,,,,,,,,1.1,0.8,0.7,4*3E,1714786741983
NMEA,$GNVTG,,T,,M,0.0,N,0.0,K,A*3D,1714786741983
NMEA,$GNDTM,P90,,0000.000026,S,00000.000000,E,0.982,W84*59,1714786741983
NMEA,$GNRMC,013902.00,A,4123.360198,N,00206.809899,E,0.0,,040524,1.4,W,A,V*6A,1714786741983
NMEA,$GNGNS,013902.00,4123.360198,N,00206.809899,E,AAAANA,14,0.8,108.4,51.0,,,V*2C,1714786741983
NMEA,$GNGGA,013902.00,4123.360198,N,00206.809899,E,1,12,0.8,108.4,M,51.0,M,,*75,1714786741983
NMEA,$GPGSV,3,1,10,13,74,057,14,14,45,060,15,15,61,307,14,17,12,105,20,1*66,1714786742967
NMEA,$GPGSV,3,2,10,19,04,130,22,20,15,182,14,22,59,090,13,23,14,320,17,1*66,1714786742967
NMEA,$GPGSV,3,3,10,24,30,265,23,30,23,064,16,1*67,1714786742967
NMEA,$GPGSV,1,1,02,24,30,265,17,30,23,064,22,8*6D,1714786742967
NMEA,$GLGSV,1,1,02,80,48,032,14,71,56,327,25,1*7E,1714786742967
NMEA,$GAGSV,2,1,05,03,72,327,20,05,47,108,19,08,22,303,17,24,39,052,18,7*7C,1714786742967
NMEA,$GAGSV,2,2,05,25,64,144,14,7*47,1714786742967
NMEA,$GAGSV,1,1,03,03,72,327,18,05,47,108,14,08,22,303,18,1*44,1714786742967
NMEA,$GBGSV,1,1,04,37,08,050,23,22,47,307,19,20,21,147,22,07,15,047,15,1*72,1714786742967
NMEA,$GBGSV,1,1,04,19,68,175,11,20,21,147,14,22,47,307,16,37,08,050,22,5*7C,1714786742967
NMEA,$GIGSV,1,1,01,09,07,129,24,1*4E,1714786742967
NMEA,$GNGSA,A,3,15,17,19,20,22,23,,,,,,,1.3,1.0,0.8,1*33,1714786742984
NMEA,$GNGSA,A,3,80,,,,,,,,,,,,1.3,1.0,0.8,2*31,1714786742984
NMEA,$GNGSA,A,3,05,08,,,,,,,,,,,1.3,1.0,0.8,3*35,1714786742984
NMEA,$GNGSA,A,3,20,22,,,,,,,,,,,1.3,1.0,0.8,4*3D,1714786742984
NMEA,$GNVTG,,T,,M,0.0,N,0.0,K,A*3D,1714786742984
NMEA,$GNDTM,P90,,0000.000026,S,00000.000000,E,0.982,W84*59,1714786742984
NMEA,$GNRMC,013903.00,A,4123.360198,N,00206.809899,E,0.0,,040524,1.4,W,A,V*6B,1714786742984
NMEA,$GNGNS,013903.00,4123.360198,N,00206.809899,E,AAAANA,11,1.0,108.4,51.0,,,V*21,1714786742984
NMEA,$GNGGA,013903.00,4123.360198,N,00206.809899,E,1,11,1.0,108.4,M,51.0,M,,*7E,1714786742984
NMEA,$GPGSV,3,1,10,13,74,057,14,14,45,060,15,15,61,307,14,17,12,105,24,1*62,1714786743968
NMEA,$GPGSV,3,2,10,19,04,130,21,20,15,182,14,22,59,090,13,23,14,320,17,1*65,1714786743968
NMEA,$GPGSV,3,3,10,24,30,265,14,30,23,064,16,1*63,1714786743968
NMEA,$GPGSV,1,1,02,24,30,265,17,30,23,064,22,8*6D,1714786743968
NMEA,$GLGSV,1,1,02,80,48,032,14,71,56,327,15,1*7D,1714786743968
NMEA,$GAGSV,2,1,05,03,72,327,10,05,47,108,19,08,22,303,17,24,39,052,18,7*7F,1714786743968
NMEA,$GAGSV,2,2,05,25,64,144,14,7*47,1714786743968
NMEA,$GAGSV,1,1,03,03,72,327,18,05,47,108,14,08,22,303,18,1*44,1714786743968
NMEA,$GBGSV,1,1,04,37,08,050,23,22,47,307,19,20,21,147,27,07,15,047,15,1*77,1714786743968
NMEA,$GBGSV,1,1,04,19,68,175,11,20,21,147,20,22,47,307,16,37,08,050,22,5*7B,1714786743968
NMEA,$GIGSV,1,1,01,09,07,129,24,1*4E,1714786743968
NMEA,$GNGSA,A,3,15,17,19,20,22,23,24,,,,,,1.2,0.9,0.7,1*33,1714786743977
NMEA,$GNGSA,A,3,71,80,,,,,,,,,,,1.2,0.9,0.7,2*31,1714786743977
NMEA,$GNGSA,A,3,03,05,08,,,,,,,,,,1.2,0.9,0.7,3*30,1714786743977
NMEA,$GNGSA,A,3,20,22,,,,,,,,,,,1.2,0.9,0.7,4*3B,1714786743977
NMEA,$GNVTG,,T,,M,0.0,N,0.0,K,A*3D,1714786743977
NMEA,$GNDTM,P90,,0000.000026,S,00000.000000,E,0.982,W84*59,1714786743977
NMEA,$GNRMC,013904.00,A,4123.360198,N,00206.809899,E,0.0,,040524,1.4,W,A,V*6C,1714786743977
NMEA,$GNGNS,013904.00,4123.360198,N,00206.809899,E,AAAANA,14,0.9,108.4,51.0,,,V*2B,1714786743977
NMEA,$GNGGA,013904.00,4123.360198,N,00206.809899,E,1,12,0.9,108.4,M,51.0,M,,*72,1714786743977
NMEA,$GPGSV,3,1,10,13,74,057,14,14,45,060,15,15,61,307,14,17,12,105,23,1*65,1714786744965
NMEA,$GPGSV,3,2,10,19,04,130,27,20,15,182,14,22,59,090,13,23,14,320,17,1*63,1714786744965
NMEA,$GPGSV,3,3,10,24,30,265,14,30,23,064,16,1*63,1714786744965
NMEA,$GPGSV,1,1,02,24,30,265,17,30,23,064,22,8*6D,1714786744965
NMEA,$GLGSV,1,1,02,80,48,032,14,71,56,327,15,1*7D,1714786744965
NMEA,$GAGSV,2,1,05,03,72,327,10,05,47,108,17,08,22,303,14,24,39,052,18,7*72,1714786744965
NMEA,$GAGSV,2,2,05,25,64,144,14,7*47,1714786744965
NMEA,$GAGSV,1,1,03,03,72,327,18,05,47,108,14,08,22,303,18,1*44,1714786744965
NMEA,$GBGSV,1,1,04,37,08,050,23,22,47,307,19,20,21,147,27,07,15,047,15,1*77,1714786744965
NMEA,$GBGSV,1,1,04,19,68,175,11,20,21,147,20,22,47,307,16,37,08,050,22,5*7B,1714786744965
NMEA,$GIGSV,1,1,01,09,07,129,24,1*4E,1714786744965
NMEA,$GNGSA,A,3,15,17,19,22,24,,,,,,,,1.5,1.3,0.8,1*33,1714786744977
NMEA,$GNGSA,A,3,71,80,,,,,,,,,,,1.5,1.3,0.8,2*32,1714786744977
NMEA,$GNGSA,A,3,03,05,08,,,,,,,,,,1.5,1.3,0.8,3*33,1714786744977
NMEA,$GNGSA,A,3,20,22,,,,,,,,,,,1.5,1.3,0.8,4*38,1714786744977
NMEA,$GNVTG,,T,,M,0.0,N,0.0,K,A*3D,1714786744977
NMEA,$GNDTM,P90,,0000.000026,S,00000.000000,E,0.982,W84*59,1714786744977
NMEA,$GNRMC,013905.00,A,4123.360198,N,00206.809899,E,0.0,,040524,1.4,W,A,V*6D,1714786744977
NMEA,$GNGNS,013905.00,4123.360198,N,00206.809899,E,AAAANN,12,1.3,108.4,51.0,,,V*28,1714786744977
NMEA,$GNGGA,013905.00,4123.360198,N,00206.809899,E,1,12,1.3,108.4,M,51.0,M,,*78,1714786744977
NMEA,$GPGSV,3,1,09,13,74,057,14,15,61,307,14,17,12,105,22,19,04,130,34,1*63,1714786745965
NMEA,$GPGSV,3,2,09,20,15,182,17,22,59,090,13,23,14,320,17,24,30,265,14,1*62,1714786745965
NMEA,$GPGSV,3,3,09,30,23,064,16,1*5A,1714786745965
NMEA,$GPGSV,1,1,02,24,30,265,17,30,23,064,22,8*6D,1714786745965
NMEA,$GLGSV,1,1,02,80,48,032,14,71,56,327,15,1*7D,1714786745965
NMEA,$GAGSV,2,1,05,03,72,327,10,05,47,108,17,08,22,303,14,24,39,052,18,7*72,1714786745965
NMEA,$GAGSV,2,2,05,25,64,144,14,7*47,1714786745965
NMEA,$GAGSV,1,1,03,03,72,327,18,05,47,108,14,08,22,303,17,1*4B,1714786745965
NMEA,$GBGSV,1,1,04,37,08,050,23,22,47,307,19,20,21,147,21,07,15,047,15,1*71,1714786745965
NMEA,$GBGSV,1,1,04,19,68,175,11,20,21,147,20,22,47,307,16,37,08,050,22,5*7B,1714786745965
NMEA,$GIGSV,1,1,01,09,07,129,19,1*40,1714786745965
NMEA,$GNGSA,A,3,15,17,19,20,22,24,,,,,,,1.3,1.0,0.8,1*34,1714786745979
NMEA,$GNGSA,A,3,71,80,,,,,,,,,,,1.3,1.0,0.8,2*37,1714786745979
NMEA,$GNGSA,A,3,03,05,08,,,,,,,,,,1.3,1.0,0.8,3*36,1714786745979
NMEA,$GNGSA,A,3,20,22,,,,,,,,,,,1.3,1.0,0.8,4*3D,1714786745979
NMEA,$GNVTG,,T,,M,0.0,N,0.0,K,A*3D,1714786745979
NMEA,$GNDTM,P90,,0000.000026,S,00000.000000,E,0.982,W84*59,1714786745979
NMEA,$GNRMC,013906.00,A,4123.360198,N,00206.809899,E,0.0,,040524,1.4,W,A,V*6E,1714786745979
NMEA,$GNGNS,013906.00,4123.360198,N,00206.809899,E,AAAANA,13,1.0,108.4,51.0,,,V*26,1714786745979
NMEA,$GNGGA,013906.00,4123.360198,N,00206.809899,E,1,12,1.0,108.4,M,51.0,M,,*78,1714786745979
NMEA,$GPGSV,3,1,09,13,74,057,14,15,61,307,14,17,12,105,22,19,04,130,34,1*63,1714786746968
NMEA,$GPGSV,3,2,09,20,15,182,17,22,59,090,13,23,14,320,17,24,30,265,14,1*62,1714786746968
NMEA,$GPGSV,3,3,09,30,23,064,16,1*5A,1714786746968
NMEA,$GPGSV,1,1,02,24,30,265,17,30,23,064,22,8*6D,1714786746968
NMEA,$GLGSV,1,1,02,80,48,032,14,71,56,327,15,1*7D,1714786746968
NMEA,$GAGSV,2,1,06,02,23,196,12,03,72,327,10,05,47,108,17,08,22,303,14,7*7D,1714786746968
NMEA,$GAGSV,2,2,06,24,39,052,18,25,64,144,14,7*76,1714786746968
NMEA,$GAGSV,1,1,03,03,72,327,18,05,47,108,14,08,22,303,17,1*4B,1714786746968
NMEA,$GBGSV,1,1,04,37,08,050,23,22,47,307,19,20,21,147,21,07,15,047,15,1*71,1714786746968
NMEA,$GBGSV,1,1,04,19,68,175,11,20,21,147,17,22,47,307,15,37,08,050,22,5*7C,1714786746968
NMEA,$GIGSV,1,1,01,09,07,129,19,1*40,1714786746968
NMEA,$GNGSA,A,3,15,17,19,20,24,,,,,,,,1.2,0.9,0.8,1*3D,1714786746978
NMEA,$GNGSA,A,3,71,80,,,,,,,,,,,1.2,0.9,0.8,2*3E,1714786746978
NMEA,$GNGSA,A,3,02,03,05,08,,,,,,,,,1.2,0.9,0.8,3*3D,1714786746978
NMEA,$GNGSA,A,3,20,22,,,,,,,,,,,1.2,0.9,0.8,4*34,1714786746978
NMEA,$GNVTG,,T,,M,0.0,N,0.0,K,A*3D,1714786746978
NMEA,$GNDTM,P90,,0000.000026,S,00000.000000,E,0.982,W84*59,1714786746978
NMEA,$GNRMC,013907.00,A,4123.360198,N,00206.809899,E,0.0,,040524,1.4,W,A,V*6F,1714786746978
NMEA,$GNGNS,013907.00,4123.360198,N,00206.809899,E,AAAANA,13,0.9,108.4,51.0,,,V*2F,1714786746978
NMEA,$GNGGA,013907.00,4123.360198,N,00206.809899,E,1,12,0.9,108.4,M,51.0,M,,*71,1714786746978
NMEA,$GPGSV,3,1,09,13,74,057,14,15,61,307,14,17,12,105,24,19,04,130,22,1*62,1714786747965
NMEA,$GPGSV,3,2,09,20,15,182,17,22,59,090,13,23,14,320,17,24,30,265,14,1*62,1714786747965
NMEA,$GPGSV,3,3,09,30,23,064,13,1*5F,1714786747965
NMEA,$GPGSV,1,1,02,24,30,265,17,30,23,064,22,8*6D,1714786747965
NMEA,$GLGSV,1,1,02,80,48,032,14,71,56,327,15,1*7D,1714786747965
NMEA,$GAGSV,2,1,06,02,23,196,12,03,72,327,10,05,47,108,17,08,22,303,14,7*7D,1714786747965
NMEA,$GAGSV,2,2,06,24,39,052,18,25,64,144,14,7*76,1714786747965
NMEA,$GAGSV,1,1,03,03,72,327,18,05,47,108,14,08,22,303,17,1*4B,1714786747965
NMEA,$GBGSV,1,1,04,37,08,050,23,22,47,307,19,20,21,147,21,07,15,047,15,1*71,1714786747965
NMEA,$GBGSV,1,1,04,19,68,175,11,20,21,147,17,22,47,307,15,37,08,050,22,5*7C,1714786747965
NMEA,$GIGSV,1,1,01,09,07,129,19,1*40,1714786747965
NMEA,$GNGSA,A,3,17,19,20,24,30,,,,,,,,1.2,0.8,0.8,1*3B,1714786747982
NMEA,$GNGSA,A,3,71,,,,,,,,,,,,1.2,0.8,0.8,2*37,1714786747982
NMEA,$GNGSA,A,3,02,03,05,08,,,,,,,,,1.2,0.8,0.8,3*3C,1714786747982
NMEA,$GNGSA,A,3,20,22,,,,,,,,,,,1.2,0.8,0.8,4*35,1714786747982
NMEA,$GNVTG,,T,,M,0.0,N,0.0,K,A*3D,1714786747982
NMEA,$GNDTM,P90,,0000.000026,S,00000.000000,E,0.982,W84*59,1714786747982
NMEA,$GNRMC,013908.00,A,4123.360149,N,00206.809869,E,0.0,,040524,1.4,W,A,V*63,1714786747982
NMEA,$GNGNS,013908.00,4123.360149,N,00206.809869,E,AAAANA,12,0.8,108.3,51.0,,,V*24,1714786747982
NMEA,$GNGGA,013908.00,4123.360149,N,00206.809869,E,1,12,0.8,108.3,M,51.0,M,,*7B,1714786747982
NMEA,$GPGSV,3,1,09,13,74,057,14,15,61,307,14,17,12,105,24,19,04,130,22,1*62,1714786748967
NMEA,$GPGSV,3,2,09,20,15,182,17,22,59,090,13,23,14,320,17,24,30,265,14,1*62,1714786748967
NMEA,$GPGSV,3,3,09,30,23,064,13,1*5F,1714786748967
NMEA,$GPGSV,1,1,02,24,30,265,17,30,23,064,22,8*6D,1714786748967
NMEA,$GLGSV,1,1,02,80,48,032,14,71,56,327,15,1*7D,1714786748967
NMEA,$GAGSV,2,1,06,02,23,196,12,03,72,327,10,05,47,108,17,08,22,303,14,7*7D,1714786748967
NMEA,$GAGSV,2,2,06,24,39,052,18,25,64,144,14,7*76,1714786748967
NMEA,$GAGSV,1,1,03,03,72,327,18,05,47,108,14,08,22,303,18,1*44,1714786748967
NMEA,$GBGSV,1,1,04,37,08,050,23,22,47,307,19,20,21,147,21,07,15,047,15,1*71,1714786748967
NMEA,$GBGSV,1,1,04,19,68,175,11,20,21,147,17,22,47,307,15,37,08,050,22,5*7C,1714786748967
NMEA,$GIGSV,1,1,01,09,07,129,19,1*40,1714786748967
NMEA,$GNGSA,A,3,17,19,20,23,24,30,,,,,,,1.1,0.8,0.8,1*39,1714786748981
NMEA,$GNGSA,A,3,71,,,,,,,,,,,,1.1,0.8,0.8,2*34,1714786748981
NMEA,$GNGSA,A,3,02,03,05,08,,,,,,,,,1.1,0.8,0.8,3*3F,1714786748981
NMEA,$GNGSA,A,3,20,22,,,,,,,,,,,1.1,0.8,0.8,4*36,1714786748981
NMEA,$GNVTG,,T,,M,0.0,N,0.0,K,A*3D,1714786748981
NMEA,$GNDTM,P90,,0000.000026,S,00000.000000,E,0.982,W84*59,1714786748981
NMEA,$GNRMC,013909.00,A,4123.360149,N,00206.809869,E,0.0,,040524,1.4,W,A,V*62,1714786748981
NMEA,$GNGNS,013909.00,4123.360149,N,00206.809869,E,AAAANA,13,0.8,108.3,51.0,,,V*24,1714786748981
NMEA,$GNGGA,013909.00,4123.360149,N,00206.809869,E,1,12,0.8,108.3,M,51.0,M,,*7A,1714786748981
NMEA,$GPGSV,3,1,09,13,74,057,14,15,61,307,14,17,12,105,25,19,04,130,26,1*67,1714786749970
NMEA,$GPGSV,3,2,09,20,15,182,17,22,59,090,13,23,14,320,17,24,30,265,14,1*62,1714786749970
NMEA,$GPGSV,3,3,09,30,23,064,13,1*5F,1714786749970
NMEA,$GPGSV,1,1,02,24,30,265,15,30,23,064,22,8*6F,1714786749970
NMEA,$GLGSV,1,1,02,80,48,032,14,71,56,327,15,1*7D,1714786749970
NMEA,$GAGSV,2,1,06,02,23,196,12,03,72,327,10,05,47,108,17,08,22,303,14,7*7D,1714786749970
NMEA,$GAGSV,2,2,06,24,39,052,18,25,64,144,14,7*76,1714786749970
NMEA,$GAGSV,1,1,03,03,72,327,18,05,47,108,14,08,22,303,22,1*4D,1714786749970
NMEA,$GBGSV,1,1,04,37,08,050,23,22,47,307,19,20,21,147,21,07,15,047,15,1*71,1714786749970
NMEA,$GBGSV,1,1,04,19,68,175,11,20,21,147,19,22,47,307,15,37,08,050,22,5*72,1714786749970
NMEA,$GIGSV,1,1,01,09,07,129,19,1*40,1714786749970
NMEA,$GNGSA,A,3,17,19,20,23,30,,,,,,,,1.2,0.8,0.9,1*3D,1714786749986
NMEA,$GNGSA,A,3,02,05,08,,,,,,,,,,1.2,0.8,0.9,3*3E,1714786749986
NMEA,$GNGSA,A,3,20,22,,,,,,,,,,,1.2,0.8,0.9,4*34,1714786749986
NMEA,$GNVTG,,T,,M,0.0,N,0.0,K,A*3D,1714786749986
NMEA,$GNDTM,P90,,0000.000026,S,00000.000000,E,0.982,W84*59,1714786749986
NMEA,$GNRMC,013910.00,A,4123.360148,N,00206.809870,E,0.0,,040524,1.4,W,A,V*63,1714786749986
NMEA,$GNGNS,013910.00,4123.360148,N,00206.809870,E,ANAANA,10,0.8,108.3,51.0,,,V*29,1714786749986
NMEA,$GNGGA,013910.00,4123.360148,N,00206.809870,E,1,10,0.8,108.3,M,51.0,M,,*79,1714786749986
NMEA,$GPGSV,3,1,09,13,74,057,14,15,61,307,16,17,12,105,25,19,04,130,26,1*65,1714786750970
NMEA,$GPGSV,3,2,09,20,15,182,17,22,59,090,13,23,14,320,17,24,30,265,14,1*62,1714786750970
NMEA,$GPGSV,3,3,09,30,23,064,13,1*5F,1714786750970
NMEA,$GPGSV,1,1,02,24,30,265,15,30,23,064,22,8*6F,1714786750970
NMEA,$GLGSV,1,1,02,80,48,032,14,71,56,327,15,1*7D,1714786750970
NMEA,$GAGSV,2,1,06,02,23,196,12,03,72,327,10,05,47,108,16,08,22,303,14,7*7C,1714786750970
NMEA,$GAGSV,2,2,06,24,39,052,18,25,64,144,14,7*76,1714786750970
NMEA,$GAGSV,1,1,03,03,72,327,18,05,47,108,14,08,22,303,22,1*4D,1714786750970
NMEA,$GBGSV,1,1,04,37,08,050,23,22,47,307,19,20,21,147,21,07,15,047,15,1*71,1714786750970
NMEA,$GBGSV,1,1,04,19,68,175,11,20,21,147,19,22,47,307,15,37,08,050,22,5*72,1714786750970
NMEA,$GIGSV,1,1,01,09,07,129,20,1*4A,1714786750970
NMEA,$GNGSA,A,3,15,17,19,20,23,30,,,,,,,1.1,0.8,0.8,1*3B,1714786750987
NMEA,$GNGSA,A,3,02,05,08,,,,,,,,,,1.1,0.8,0.8,3*3C,1714786750987
NMEA,$GNGSA,A,3,20,22,,,,,,,,,,,1.1,0.8,0.8,4*36,1714786750987
NMEA,$GNVTG,,T,,M,0.0,N,0.0,K,A*3D,1714786750987
NMEA,$GNDTM,P90,,0000.000026,S,00000.000000,E,0.982,W84*59,1714786750987
NMEA,$GNRMC,013911.00,A,4123.360148,N,00206.809870,E,0.0,,040524,1.4,W,A,V*62,1714786750987
NMEA,$GNGNS,013911.00,4123.360148,N,00206.809870,E,ANAANA,11,0.8,108.3,51.0,,,V*29,1714786750987
NMEA,$GNGGA,013911.00,4123.360148,N,00206.809870,E,1,11,0.8,108.3,M,51.0,M,,*79,1714786750987
NMEA,$GPGSV,2,1,08,13,74,057,14,15,61,307,16,17,12,105,21,19,04,130,36,1*60,1714786751969
NMEA,$GPGSV,2,2,08,20,15,182,17,22,59,090,13,24,30,265,14,30,23,064,13,1*63,1714786751969
NMEA,$GPGSV,1,1,02,24,30,265,15,30,23,064,22,8*6F,1714786751969
NMEA,$GLGSV,1,1,02,80,48,032,14,71,56,327,15,1*7D,1714786751969
NMEA,$GAGSV,2,1,06,02,23,196,12,03,72,327,10,05,47,108,16,08,22,303,14,7*7C,1714786751969
NMEA,$GAGSV,2,2,06,24,39,052,18,25,64,144,14,7*76,1714786751969
NMEA,$GAGSV,1,1,03,03,72,327,18,05,47,108,14,08,22,303,21,1*4E,1714786751969
NMEA,$GBGSV,1,1,04,37,08,050,23,22,47,307,20,20,21,147,21,07,15,047,15,1*7B,1714786751969
NMEA,$GBGSV,1,1,04,19,68,175,11,20,21,147,18,22,47,307,16,37,08,050,22,5*70,1714786751969
NMEA,$GIGSV,1,1,01,09,07,129,29,1*43,1714786751969
NMEA,$GNGSA,A,3,15,17,19,23,30,,,,,,,,1.3,0.9,0.8,1*3A,1714786751978
NMEA,$GNGSA,A,3,02,05,08,,,,,,,,,,1.3,0.9,0.8,3*3F,1714786751978
NMEA,$GNGSA,A,3,20,22,,,,,,,,,,,1.3,0.9,0.8,4*35,1714786751978
NMEA,$GNVTG,,T,,M,0.0,N,0.0,K,A*3D,1714786751978
NMEA,$GNDTM,P90,,0000.000026,S,00000.000000,E,0.982,W84*59,1714786751978
NMEA,$GNRMC,013912.00,A,4123.360147,N,00206.809872,E,0.0,,040524,1.4,W,A,V*6C,1714786751978
NMEA,$GNGNS,013912.00,4123.360147,N,00206.809872,E,ANAANA,10,0.9,108.3,51.0,,,V*27,1714786751978
NMEA,$GNGGA,013912.00,4123.360147,N,00206.809872,E,1,10,0.9,108.3,M,51.0,M,,*77,1714786751978
NMEA,$GPGSV,2,1,08,13,74,057,14,15,61,307,16,17,12,105,21,19,04,130,21,1*66,1714786752976
NMEA,$GPGSV,2,2,08,20,15,182,16,22,59,090,14,24,30,265,14,30,23,064,13,1*65,1714786752976
NMEA,$GPGSV,1,1,02,24,30,265,15,30,23,064,22,8*6F,1714786752976
NMEA,$GLGSV,1,1,02,80,48,032,14,71,56,327,15,1*7D,1714786752976
NMEA,$GAGSV,2,1,06,02,23,196,12,03,72,327,10,05,47,108,16,08,22,303,15,7*7D,1714786752976
NMEA,$GAGSV,2,2,06,24,39,052,18,25,64,144,14,7*76,1714786752976
NMEA,$GAGSV,1,1,02,03,72,327,18,08,22,303,21,1*75,1714786752976
NMEA,$GBGSV,1,1,04,37,08,050,23,22,47,307,20,20,21,147,25,07,15,047,15,1*7F,1714786752976
NMEA,$GBGSV,1,1,04,19,68,175,11,20,21,147,18,22,47,307,16,37,08,050,22,5*70,1714786752976
NMEA,$GIGSV,1,1,01,09,07,129,29,1*43,1714786752976
NMEA,$GNGSA,A,3,15,17,19,20,22,23,30,,,,,,1.2,0.9,0.8,1*39,1714786752983
NMEA,$GNGSA,A,3,05,08,,,,,,,,,,,1.2,0.9,0.8,3*3C,1714786752983
NMEA,$GNGSA,A,3,20,22,,,,,,,,,,,1.2,0.9,0.8,4*34,1714786752983
NMEA,$GNVTG,,T,,M,0.0,N,0.0,K,A*3D,1714786752983
NMEA,$GNDTM,P90,,0000.000026,S,00000.000000,E,0.982,W84*59,1714786752983
NMEA,$GNRMC,013913.00,A,4123.360125,N,00206.809861,E,0.0,,040524,1.4,W,A,V*6B,1714786752983
NMEA,$GNGNS,013913.00,4123.360125,N,00206.809861,E,ANAANA,11,0.9,108.2,51.0,,,V*20,1714786752983
NMEA,$GNGGA,013913.00,4123.360125,N,00206.809861,E,1,11,0.9,108.2,M,51.0,M,,*70,1714786752983
NMEA,$GPGSV,2,1,08,13,74,057,14,15,61,307,16,17,12,105,23,19,04,130,25,1*60,1714786753967
NMEA,$GPGSV,2,2,08,20,15,182,16,22,59,090,14,24,30,265,14,30,23,064,13,1*65,1714786753967
NMEA,$GPGSV,1,1,02,24,30,265,15,30,23,064,22,8*6F,1714786753967
NMEA,$GLGSV,1,1,02,80,48,032,14,71,56,327,15,1*7D,1714786753967
NMEA,$GAGSV,2,1,06,02,23,196,12,03,72,327,10,05,47,108,16,08,22,303,15,7*7D,1714786753967
NMEA,$GAGSV,2,2,06,24,39,052,18,25,64,144,16,7*74,1714786753967
NMEA,$GAGSV,1,1,03,03,72,327,18,08,22,303,21,25,64,144,15,1*44,1714786753967
NMEA,$GBGSV,2,1,05,37,08,050,23,22,47,307,20,20,21,147,31,19,68,175,17,1*7F,1714786753967
NMEA,$GBGSV,2,2,05,07,15,047,15,1*47,1714786753967
NMEA,$GBGSV,1,1,04,19,68,175,11,20,21,147,18,22,47,307,16,37,08,050,22,5*70,1714786753967
NMEA,$GIGSV,1,1,01,09,07,129,29,1*43,1714786753967
NMEA,$GNGSA,A,3,15,17,19,20,22,23,,,,,,,1.3,1.1,0.7,1*3D,1714786753978
NMEA,$GNGSA,A,3,05,08,25,,,,,,,,,,1.3,1.1,0.7,3*3C,1714786753978
NMEA,$GNGSA,A,3,19,20,22,,,,,,,,,,1.3,1.1,0.7,4*3B,1714786753978
NMEA,$GNVTG,,T,,M,0.0,N,0.0,K,A*3D,1714786753978
NMEA,$GNDTM,P90,,0000.000026,S,00000.000000,E,0.982,W84*59,1714786753978
NMEA,$GNRMC,013914.00,A,4123.360125,N,00206.809861,E,0.0,,040524,1.4,W,A,V*6C,1714786753978
NMEA,$GNGNS,013914.00,4123.360125,N,00206.809861,E,ANAANA,12,1.1,108.2,51.0,,,V*2D,1714786753978
NMEA,$GNGGA,013914.00,4123.360125,N,00206.809861,E,1,12,1.1,108.2,M,51.0,M,,*7D,1714786753978
NMEA,$GPGSV,3,1,10,05,40,202,20,13,74,057,14,15,61,307,16,17,12,105,21,1*60,1714786754971
NMEA,$GPGSV,3,2,10,19,04,130,23,20,15,182,21,22,59,090,14,23,14,320,20,1*62,1714786754971
NMEA,$GPGSV,3,3,10,24,30,265,14,30,23,064,13,1*66,1714786754971
NMEA,$GPGSV,1,1,02,24,30,265,15,30,23,064,22,8*6F,1714786754971
NMEA,$GLGSV,1,1,02,80,48,032,14,71,56,327,15,1*7D,1714786754971
NMEA,$GAGSV,2,1,06,02,24,196,16,03,73,329,10,05,47,109,19,08,23,303,15,7*7E,1714786754971
NMEA,$GAGSV,2,2,06,24,38,052,18,25,65,143,22,7*74,1714786754971
NMEA,$GAGSV,1,1,03,05,47,109,19,08,23,303,21,25,65,143,15,1*4C,1714786754971
NMEA,$GBGSV,2,1,06,37,08,050,23,36,61,232,16,22,47,307,20,20,21,147,27,1*7E,1714786754971
NMEA,$GBGSV,2,2,06,19,68,175,17,07,15,047,15,1*77,1714786754971
NMEA,$GBGSV,1,1,04,19,68,175,11,20,21,147,18,22,47,307,16,37,08,050,22,5*70,1714786754971
NMEA,$GIGSV,1,1,01,09,07,129,29,1*43,1714786754971
NMEA,$GNGSA,A,3,05,15,17,19,20,22,23,,,,,,1.1,0.8,0.7,1*32,1714786754984
NMEA,$GNGSA,A,3,02,05,08,25,,,,,,,,,1.1,0.8,0.7,3*34,1714786754984
NMEA,$GNGSA,A,3,19,20,22,36,,,,,,,,,1.1,0.8,0.7,4*34,1714786754984
NMEA,$GNVTG,,T,,M,0.0,N,0.0,K,A*3D,1714786754984
NMEA,$GNDTM,P90,,0000.000026,S,00000.000000,E,0.982,W84*59,1714786754984
NMEA,$GNRMC,013915.00,A,4123.360124,N,00206.809860,E,0.0,,040524,1.4,W,A,V*6D,1714786754984
NMEA,$GNGNS,013915.00,4123.360124,N,00206.809860,E,ANAANA,15,0.8,108.2,51.0,,,V*23,1714786754984
NMEA,$GNGGA,013915.00,4123.360124,N,00206.809860,E,1,12,0.8,108.2,M,51.0,M,,*74,1714786754984
NMEA,$GPGSV,3,1,09,05,40,202,20,15,61,307,16,17,12,105,26,19,04,130,22,1*67,1714786755970
NMEA,$GPGSV,3,2,09,20,15,182,21,22,59,090,14,23,14,320,20,24,30,265,15,1*65,1714786755970
NMEA,$GPGSV,3,3,09,30,23,064,13,1*5F,1714786755970
NMEA,$GPGSV,1,1,02,24,30,265,16,30,23,064,22,8*6C,1714786755970
NMEA,$GLGSV,1,1,02,80,48,032,14,71,56,327,15,1*7D,1714786755970
NMEA,$GAGSV,2,1,06,02,24,196,16,03,73,329,10,05,47,109,19,08,23,303,15,7*7E,1714786755970
NMEA,$GAGSV,2,2,06,24,38,052,18,25,65,143,22,7*74,1714786755970
NMEA,$GAGSV,1,1,03,05,47,109,19,08,23,303,21,25,65,143,15,1*4C,1714786755970
NMEA,$GBGSV,2,1,05,37,08,050,23,36,61,232,16,22,47,307,20,20,21,147,23,1*79,1714786755970
NMEA,$GBGSV,2,2,05,19,68,175,21,1*45,1714786755970
NMEA,$GBGSV,1,1,02,20,21,147,18,22,47,307,16,5*7A,1714786755970
NMEA,$GIGSV,1,1,01,09,07,129,29,1*43,1714786755970
NMEA,$GNGSA,A,3,05,15,17,19,20,22,23,24,,,,,1.0,0.8,0.7,1*35,1714786755978
NMEA,$GNGSA,A,3,02,03,05,08,25,,,,,,,,1.0,0.8,0.7,3*36,1714786755978
NMEA,$GNGSA,A,3,19,20,22,36,,,,,,,,,1.0,0.8,0.7,4*35,1714786755978
NMEA,$GNVTG,,T,,M,0.0,N,0.0,K,A*3D,1714786755978
NMEA,$GNDTM,P90,,0000.000026,S,00000.000000,E,0.982,W84*59,1714786755978
NMEA,$GNRMC,013916.00,A,4123.360125,N,00206.809860,E,0.0,,040524,1.4,W,A,V*6F,1714786755978
NMEA,$GNGNS,013916.00,4123.360125,N,00206.809860,E,ANAANA,17,0.8,108.2,51.0,,,V*23,1714786755978
NMEA,$GNGGA,013916.00,4123.360125,N,00206.809860,E,1,12,0.8,108.2,M,51.0,M,,*76,1714786755978
NMEA,$GPGSV,3,1,09,05,40,202,25,15,62,307,16,17,12,105,24,19,04,130,22,1*63,1714786756966
NMEA,$GPGSV,3,2,09,20,14,182,20,22,59,088,14,23,14,320,20,24,30,265,15,1*6C,1714786756966
NMEA,$GPGSV,3,3,09,30,23,064,13,1*5F,1714786756966
NMEA,$GPGSV,1,1,02,24,30,265,16,30,23,064,22,8*6C,1714786756966
NMEA,$GLGSV,1,1,02,80,48,032,14,71,56,327,15,1*7D,1714786756966
NMEA,$GAGSV,2,1,06,02,24,196,16,03,73,329,10,05,47,109,21,08,23,303,15,7*75,1714786756966
NMEA,$GAGSV,2,2,06,24,38,052,18,25,65,143,22,7*74,1714786756966
NMEA,$GAGSV,1,1,04,02,24,196,18,05,47,109,19,08,23,303,21,25,65,143,15,1*78,1714786756966
NMEA,$GBGSV,2,1,05,37,08,050,23,36,61,233,24,22,48,306,20,20,20,147,22,1*77,1714786756966
NMEA,$GBGSV,2,2,05,19,68,175,21,1*45,1714786756966
NMEA,$GBGSV,1,1,03,20,20,147,18,22,48,306,16,36,61,233,20,5*46,1714786756966
NMEA,$GIGSV,1,1,01,09,07,129,29,1*43,1714786756966
NMEA,$GNGSA,A,3,05,17,19,20,22,23,24,,,,,,1.0,0.8,0.7,1*31,1714786756982
NMEA,$GNGSA,A,3,02,03,05,08,25,,,,,,,,1.0,0.8,0.7,3*36,1714786756982
NMEA,$GNGSA,A,3,19,20,22,36,,,,,,,,,1.0,0.8,0.7,4*35,1714786756982
NMEA,$GNVTG,,T,,M,0.0,N,0.0,K,A*3D,1714786756982
NMEA,$GNDTM,P90,,0000.000026,S,00000.000000,E,0.982,W84*59,1714786756982
NMEA,$GNRMC,013917.00,A,4123.360114,N,00206.809854,E,0.0,,040524,1.4,W,A,V*6B,1714786756982
NMEA,$GNGNS,013917.00,4123.360114,N,00206.809854,E,ANAANA,16,0.8,108.1,51.0,,,V*25,1714786756982
NMEA,$GNGGA,013917.00,4123.360114,N,00206.809854,E,1,12,0.8,108.1,M,51.0,M,,*71,1714786756982
NMEA,$GPGSV,3,1,09,05,40,202,23,15,62,307,17,17,12,105,24,19,04,130,22,1*64,1714786757968
NMEA,$GPGSV,3,2,09,20,14,182,21,22,59,088,14,23,14,320,20,24,30,265,21,1*6A,1714786757968
NMEA,$GPGSV,3,3,09,30,23,064,13,1*5F,1714786757968
NMEA,$GPGSV,1,1,02,24,30,265,19,30,23,064,22,8*63,1714786757968
NMEA,$GLGSV,1,1,02,80,48,032,14,71,56,327,15,1*7D,1714786757968
NMEA,$GAGSV,2,1,06,02,24,196,22,03,73,329,19,05,47,109,21,08,23,303,15,7*7B,1714786757968
NMEA,$GAGSV,2,2,06,24,38,052,18,25,65,143,22,7*74,1714786757968
NMEA,$GAGSV,1,1,04,02,24,196,18,05,47,109,19,08,23,303,21,25,65,143,15,1*78,1714786757968
NMEA,$GBGSV,2,1,05,37,08,050,23,36,61,233,25,22,48,306,20,20,20,147,22,1*76,1714786757968
NMEA,$GBGSV,2,2,05,19,68,175,23,1*47,1714786757968
NMEA,$GBGSV,1,1,03,20,20,147,18,22,48,306,15,36,61,233,21,5*44,1714786757968
NMEA,$GIGSV,1,1,01,09,07,129,29,1*43,1714786757968
NMEA,$GNGSA,A,3,05,15,17,19,20,22,23,24,,,,,1.0,0.8,0.7,1*35,1714786757987
NMEA,$GNGSA,A,3,02,03,05,08,25,,,,,,,,1.0,0.8,0.7,3*36,1714786757987
NMEA,$GNGSA,A,3,19,20,22,36,,,,,,,,,1.0,0.8,0.7,4*35,1714786757987
NMEA,$GNVTG,,T,,M,0.0,N,0.0,K,A*3D,1714786757987
NMEA,$GNDTM,P90,,0000.000026,S,00000.000000,E,0.982,W84*59,1714786757987
NMEA,$GNRMC,013918.00,A,4123.360099,N,00206.809855,E,0.0,,040524,1.4,W,A,V*61,1714786757987
NMEA,$GNGNS,013918.00,4123.360099,N,00206.809855,E,ANAANN,17,0.8,107.7,51.0,,,V*28,1714786757987
NMEA,$GNGGA,013918.00,4123.360099,N,00206.809855,E,1,12,0.8,107.7,M,51.0,M,,*72,1714786757987
NMEA,$GPGSV,3,1,09,05,40,202,24,15,62,307,24,17,12,105,21,19,04,130,22,1*66,1714786758970
NMEA,$GPGSV,3,2,09,20,14,182,21,22,59,088,17,23,14,320,20,24,30,265,21,1*69,1714786758970
NMEA,$GPGSV,3,3,09,30,23,064,13,1*5F,1714786758970
NMEA,$GPGSV,1,1,01,24,30,265,19,8*50,1714786758970
NMEA,$GLGSV,1,1,02,80,48,032,14,71,56,327,15,1*7D,1714786758970
NMEA,$GAGSV,2,1,05,02,24,196,22,03,73,329,19,05,47,109,21,08,23,303,15,7*78,1714786758970
NMEA,$GAGSV,2,2,05,25,65,143,22,7*44,1714786758970
NMEA,$GAGSV,1,1,04,02,24,196,18,05,47,109,19,08,23,303,21,25,65,143,15,1*78,1714786758970
NMEA,$GBGSV,2,1,05,37,08,050,23,36,61,233,28,22,48,306,21,20,20,147,22,1*7A,1714786758970
NMEA,$GBGSV,2,2,05,19,68,175,26,1*42,1714786758970
NMEA,$GBGSV,1,1,04,19,68,175,20,20,20,147,17,22,48,306,15,36,61,233,23,5*79,1714786758970
NMEA,$GIGSV,1,1,01,09,07,129,29,1*43,1714786758970
NMEA,$GNGSA,A,3,05,15,17,19,20,22,23,24,,,,,1.1,0.8,0.7,1*34,1714786758990
NMEA,$GNGSA,A,3,02,03,05,25,,,,,,,,,1.1,0.8,0.7,3*3F,1714786758990
NMEA,$GNGSA,A,3,19,20,22,36,,,,,,,,,1.1,0.8,0.7,4*34,1714786758990
NMEA,$GNVTG,,T,,M,0.0,N,0.0,K,A*3D,1714786758990
NMEA,$GNDTM,P90,,0000.000026,S,00000.000000,E,0.982,W84*59,1714786758990
NMEA,$GNRMC,013919.00,A,4123.360093,N,00206.809852,E,0.0,,040524,1.4,W,A,V*6D,1714786758990
NMEA,$GNGNS,013919.00,4123.360093,N,00206.809852,E,ANAANN,16,0.8,107.6,51.0,,,V*24,1714786758990
NMEA,$GNGGA,013919.00,4123.360093,N,00206.809852,E,1,12,0.8,107.6,M,51.0,M,,*7F,1714786758990
NMEA,$GPGSV,3,1,11,05,40,202,25,13,74,060,20,14,45,059,25,15,62,307,26,1*6A,1714786759966
NMEA,$GPGSV,3,2,11,17,12,105,21,19,04,130,22,20,14,182,21,22,59,088,24,1*6C,1714786759966
NMEA,$GPGSV,3,3,11,23,14,320,20,24,30,265,21,30,23,064,14,1*51,1714786759966
NMEA,$GPGSV,1,1,01,24,30,265,19,8*50,1714786759966
NMEA,$GLGSV,1,1,03,73,68,233,19,80,48,032,16,71,56,327,21,1*49,1714786759966
NMEA,$GAGSV,2,1,05,02,24,196,22,03,73,329,22,05,47,109,20,08,23,303,16,7*72,1714786759966
NMEA,$GAGSV,2,2,05,25,65,143,18,7*4D,1714786759966
NMEA,$GAGSV,2,1,05,02,24,196,18,03,73,329,17,05,47,109,17,08,23,303,16,1*7F,1714786759966
NMEA,$GAGSV,2,2,05,25,65,143,19,1*4A,1714786759966
NMEA,$GBGSV,1,1,04,36,61,233,28,22,48,306,28,20,20,147,27,19,68,175,31,1*7B,1714786759966
NMEA,$GBGSV,1,1,04,19,68,175,25,20,20,147,22,22,48,306,20,36,61,233,24,5*7B,1714786759966
NMEA,$GIGSV,1,1,01,09,07,129,29,1*43,1714786759966
NMEA,$GNGSA,A,3,05,13,14,15,17,19,20,22,23,24,30,,0.9,0.6,0.7,1*37,1714786759975
NMEA,$GNGSA,A,3,71,80,,,,,,,,,,,0.9,0.6,0.7,2*34,1714786759975
NMEA,$GNGSA,A,3,02,03,05,08,25,,,,,,,,0.9,0.6,0.7,3*30,1714786759975
NMEA,$GNGSA,A,3,19,20,22,36,,,,,,,,,0.9,0.6,0.7,4*33,1714786759975
NMEA,$GNVTG,204.7,T,206.1,M,3.2,N,5.9,K,A*34,1714786759975
NMEA,$GNDTM,P90,,0000.000026,S,00000.000000,E,0.982,W84*59,1714786759975
NMEA,$GNRMC,013920.00,A,4123.354662,N,00206.811469,E,3.2,204.7,040524,1.4,W,A,V*4B,1714786759975
NMEA,$GNGNS,013920.00,4123.354662,N,00206.811469,E,AAAANN,22,0.6,110.1,51.0,,,V*2B,1714786759975
NMEA,$GNGGA,013920.00,4123.354662,N,00206.811469,E,1,12,0.6,110.1,M,51.0,M,,*78,1714786759975
NMEA,$GPGSV,3,1,11,05,40,202,21,13,74,060,28,14,45,059,23,15,62,307,28,1*6E,1714786760967
NMEA,$GPGSV,3,2,11,17,12,105,21,19,04,130,22,20,14,182,21,22,59,088,27,1*6F,1714786760967
NMEA,$GPGSV,3,3,11,23,14,320,20,24,30,265,21,30,23,064,14,1*51,1714786760967
NMEA,$GPGSV,1,1,01,24,30,265,19,8*50,1714786760967
NMEA,$GLGSV,1,1,03,73,68,233,20,80,48,032,16,71,56,327,27,1*45,1714786760967
NMEA,$GAGSV,2,1,06,02,24,196,22,03,73,329,26,05,47,109,20,08,23,303,16,7*75,1714786760967
NMEA,$GAGSV,2,2,06,24,38,052,21,25,65,143,25,7*79,1714786760967
NMEA,$GAGSV,2,1,05,02,24,196,18,03,73,329,24,05,47,109,21,08,23,303,16,1*7A,1714786760967
NMEA,$GAGSV,2,2,05,25,65,143,25,1*45,1714786760967
NMEA,$GBGSV,1,1,04,36,61,233,23,22,48,306,29,20,20,147,25,19,68,175,29,1*7A,1714786760967
NMEA,$GBGSV,1,1,04,19,68,175,26,20,20,147,22,22,48,306,23,36,61,233,21,5*7E,1714786760967
NMEA,$GIGSV,1,1,01,09,07,129,29,1*43,1714786760967
NMEA,$GNGSA,A,3,05,13,14,15,17,19,20,22,24,30,,,0.9,0.7,0.7,1*37,1714786760977
NMEA,$GNGSA,A,3,71,80,,,,,,,,,,,0.9,0.7,0.7,2*35,1714786760977
NMEA,$GNGSA,A,3,02,03,05,08,24,25,,,,,,,0.9,0.7,0.7,3*37,1714786760977
NMEA,$GNGSA,A,3,19,20,22,36,,,,,,,,,0.9,0.7,0.7,4*32,1714786760977
NMEA,$GNVTG,55.6,T,57.0,M,0.4,N,0.8,K,A*35,1714786760977
NMEA,$GNDTM,P90,,0000.000026,S,00000.000000,E,0.982,W84*59,1714786760977
NMEA,$GNRMC,013921.00,A,4123.349439,N,00206.809423,E,0.4,55.6,040524,1.4,W,A,V*7F,1714786760977
NMEA,$GNGNS,013921.00,4123.349439,N,00206.809423,E,AAAANN,22,0.7,110.8,51.0,,,V*25,1714786760977
NMEA,$GNGGA,013921.00,4123.349439,N,00206.809423,E,1,12,0.7,110.8,M,51.0,M,,*76,1714786760977
NMEA,$GPGSV,3,1,11,05,40,202,21,13,74,060,25,14,45,059,22,15,62,307,24,1*6E,1714786761970
NMEA,$GPGSV,3,2,11,17,12,105,21,19,04,130,22,20,14,182,21,22,59,088,24,1*6C,1714786761970
NMEA,$GPGSV,3,3,11,23,14,320,20,24,30,265,21,30,23,064,14,1*51,1714786761970
NMEA,$GPGSV,1,1,02,24,30,265,19,30,23,064,18,8*6A,1714786761970
NMEA,$GLGSV,1,1,03,73,68,233,21,80,48,032,22,71,56,327,30,1*45,1714786761970
NMEA,$GAGSV,2,1,06,02,24,196,17,03,73,329,21,05,47,109,23,08,23,303,16,7*77,1714786761970
NMEA,$GAGSV,2,2,06,24,38,052,21,25,65,143,20,7*7C,1714786761970
NMEA,$GAGSV,2,1,05,02,24,196,18,03,73,329,25,05,47,109,27,08,23,303,16,1*7D,1714786761970
NMEA,$GAGSV,2,2,05,25,65,143,24,1*44,1714786761970
NMEA,$GBGSV,1,1,04,36,61,233,22,22,48,306,26,20,20,147,25,19,68,175,29,1*74,1714786761970
NMEA,$GBGSV,1,1,04,19,68,175,22,20,20,147,22,22,48,306,23,36,61,233,21,5*7A,1714786761970
NMEA,$GIGSV,1,1,02,06,33,137,17,09,07,129,29,1*75,1714786761970
NMEA,$GNGSA,A,3,05,13,14,15,17,20,22,24,30,,,,1.0,0.7,0.7,1*37,1714786761979
NMEA,$GNGSA,A,3,71,80,,,,,,,,,,,1.0,0.7,0.7,2*3D,1714786761979
NMEA,$GNGSA,A,3,02,03,05,08,24,25,,,,,,,1.0,0.7,0.7,3*3F,1714786761979
NMEA,$GNGSA,A,3,19,20,22,36,,,,,,,,,1.0,0.7,0.7,4*3A,1714786761979
NMEA,$GNVTG,,T,,M,0.0,N,0.0,K,A*3D,1714786761979
NMEA,$GNDTM,P90,,0000.000026,S,00000.000000,E,0.982,W84*59,1714786761979
NMEA,$GNRMC,013922.00,A,4123.347357,N,00206.808849,E,0.0,,040524,1.4,W,A,V*60,1714786761979
NMEA,$GNGNS,013922.00,4123.347357,N,00206.808849,E,AAAANA,21,0.7,112.1,51.0,,,V*21,1714786761979
NMEA,$GNGGA,013922.00,4123.347357,N,00206.808849,E,1,12,0.7,112.1,M,51.0,M,,*7E,1714786761979
NMEA,$GPGSV,3,1,11,05,40,202,20,13,74,060,25,14,45,059,24,15,62,307,22,1*6F,1714786762967
NMEA,$GPGSV,3,2,11,17,12,105,22,19,04,130,22,20,14,182,17,22,59,088,27,1*69,1714786762967
NMEA,$GPGSV,3,3,11,23,14,320,16,24,30,265,18,30,23,064,14,1*5E,1714786762967
NMEA,$GPGSV,1,1,02,24,30,265,19,30,23,064,18,8*6A,1714786762967
NMEA,$GLGSV,1,1,03,73,68,233,20,80,48,032,23,71,56,327,23,1*47,1714786762967
NMEA,$GAGSV,2,1,06,02,24,196,17,03,73,329,21,05,47,109,22,08,23,303,16,7*76,1714786762967
NMEA,$GAGSV,2,2,06,24,38,052,21,25,65,143,20,7*7C,1714786762967
NMEA,$GAGSV,2,1,06,02,24,196,18,03,73,329,25,05,47,109,22,08,23,303,16,1*7B,1714786762967
NMEA,$GAGSV,2,2,06,24,38,052,16,25,65,143,24,1*7A,1714786762967
NMEA,$GBGSV,1,1,04,36,61,233,23,22,48,306,26,20,20,147,21,19,68,175,21,1*79,1714786762967
NMEA,$GBGSV,1,1,04,19,68,175,22,20,20,147,17,22,48,306,23,36,61,233,21,5*7C,1714786762967
NMEA,$GIGSV,1,1,02,06,33,137,17,09,07,129,29,1*75,1714786762967
NMEA,$GNGSA,A,3,05,13,14,15,17,20,22,23,24,30,,,0.9,0.6,0.7,1*3F,1714786762980
NMEA,$GNGSA,A,3,71,80,,,,,,,,,,,0.9,0.6,0.7,2*34,1714786762980
NMEA,$GNGSA,A,3,02,03,05,08,24,25,,,,,,,0.9,0.6,0.7,3*36,1714786762980
