     3.03           OBSERVATION DATA    M                   RINEX VERSION / TYPE
GnssLogger          Xiaomi 13           20240504 013900 UTC PGM / RUN BY / DATE
Google GnssLogger                                           MARKER NAME
Unknown                                                     MARKER NUMBER
Unknown             Unknown                                 OBSERVER / AGENCY
Unknown             GnssLogger          v3.0.6.4            REC # / TYPE / VERS
Unknown             Unknown                                 ANT # / TYPE
        0.0000        0.0000        0.0000                  ANTENNA: DELTA H/E/N
G    6 C1C D1C S1C C5Q D5Q S5Q                              SYS / # / OBS TYPES
R    3 C1C D1C S1C                                          SYS / # / OBS TYPES
C    6 C2I D2I S2I C7Q D7Q S7Q                              SYS / # / OBS TYPES
E    6 C1C D1C S1C C5Q D5Q S5Q                              SYS / # / OBS TYPES
  2024    05    04    01    39   00.0000000     GPS         TIME OF FIRST OBS
 6 R06 -4 R07  5 R08  6 R09 -2 R10 -7 R16 -1                GLONASS SLOT / FRQ #

 C1C    0.000 C1P    0.000 C2C    0.000 C2P    0.000        GLONASS COD/PHS/BIS
                                                            END OF HEADER
> 2024 05 04 01 39 00.4401588  0 4                      
G17  24079829.15422      2144.95022        16.00022                                                
G24  22410051.71723      2684.80023        22.70023  22407688.45323      2007.60023        17.90023
C22  22836057.99923      1896.20023        23.10023                                                
C36                                                  22093709.81622      1053.75022        13.70022
> 2024 05 04 01 39 01.4401588  0 9                      
G15  20298039.48523      1465.75023        20.80023                                                
G19  25294660.29623      2942.35023        23.20023                                                
G23  24081078.54123      2913.80023        21.40023                                                
G24  22409516.14023      2686.30023        23.10023                                                
R07  19932320.86623      2346.55023        20.70023
C22  22835695.10224      1891.60024        28.50024  22833797.71623      1425.05023        18.90023
E03  23479041.62322       756.20022        14.90022
E08  26607776.74423      2385.55023        22.20023
C37                                                  26543727.58522     -2276.40022        16.90022
> 2024 05 04 01 39 02.4401588  0 6                      
G13  20092300.00723      -506.35023        18.30023                                                
G24  22409013.38023      2687.30023        21.90023                                                
R07  19931876.56623      2348.55023        21.90023
C22  22835318.85524      1888.00024        27.40024  22833435.25924      1423.64224        23.50024
C07  40315458.30622       -19.40022        15.30022                                                
C37                                                  26544313.37123     -2279.65023        21.90023
> 2024 05 04 01 39 03.4401588  0 5                      
G15  20297449.37723      1455.45023        19.90023                                                
G22  21001322.19622      -526.80022        15.30022                                                
C22  22834968.28925      1888.97525        30.20025  22833075.10024      1423.48024        24.50024
E08  26606864.36023      2383.00023        18.90023  26604956.18124      1780.00024        26.10024
C19                                                  22169098.96122      -955.10022        13.70022
> 2024 05 04 01 39 04.4401588  0 7                      
G14  21607800.34322     -1686.60022        14.50022                                                
G23  24079432.66823      2906.95023        18.50023                                                
G24  22408001.87523      2682.10023        20.90023                                                
C22  22834599.04824      1889.85524        29.30024  22832710.65524      1424.22624        26.90024
C20  25088985.26922     -3199.45022        17.20022                                                
E03  23478614.40623       751.60023        18.30023                                                
E08                                                  26604504.19724      1781.25024        26.20024
> 2024 05 04 01 39 05.4401588  0 7                      
G15  20296949.43623      1455.60023        20.20023                                                
G19  25292387.86623      2943.25023        21.10023                                                
R07  19930661.81123      2346.05023        19.50023
C22  22834243.50424      1889.90024        28.80024  22832352.11324      1422.97924        26.30024
C20  25089584.86323     -3197.30023        21.60023                                                
E08  26605954.00323      2384.35023        20.60023  26604048.22224      1779.89924        26.00024
G30                                                  23541249.45422     -2025.40022        15.70022
> 2024 05 04 01 39 06.4401588  0 7                      
G15  20296678.83123      1461.70023        21.00023                                                
G22  21001642.29523      -535.90023        19.30023                                                
G24  22406961.41323      2685.45023        19.50023                                                
C22  22833883.86125      1888.37925        29.50025  22831987.07424      1423.39124        25.60024
E03  23478324.02423       751.65023        20.30023                                                
E08  26605495.12823      2384.05023        21.50023  26603595.34424      1780.44724        27.00024
C19                                                  22169834.57223      -957.90023        18.70023
> 2024 05 04 01 39 07.4401588  0 9                      
G15  20296364.09523      1464.60023        21.50023                                                
G24  22406437.72123      2680.30023        21.50023                                                
R16  20376691.38522     -2756.30022        14.40022
C22  22833511.86424      1888.66824        29.40024  22831625.57024      1423.63724        26.20024
C20  25090806.97123     -3201.70023        19.80023                                                
E03  23478180.46923       752.00023        22.40023                                                
G30                                                  23542282.69223     -2027.10023        18.40023
E08                                                  26603142.10324      1781.12524        27.50024
C19                                                  22170078.04923      -956.85023        21.60023
> 2024 05 04 01 39 08.4401589  0 3                      
R07  19929375.32623      2343.45023        18.90023
C22  22833184.26125      1884.78225        29.80025  22831292.27124      1420.13724        24.70024
E08  26604618.05223      2382.85023        19.00023  26602719.16724      1777.85824        25.60024
> 2024 05 04 01 39 09.4401589  0 5                      
G19  25290188.20523      2938.60023        21.90023                                                
G24  22405482.94523      2680.35023        22.80023                                                
R07  19928881.86024      2331.25024        25.10024
C22  22832822.40424      1883.05024        27.70024  22830927.71623      1418.00023        22.70023
E03  23477928.40623       746.75023        19.80023                                                
> 2024 05 04 01 39 10.4401588  0 3                      
C37  26550846.11622     -3032.45022        16.90022  26548953.52623     -2278.90023        18.70023
C22  22832435.41824      1882.65024        26.70024                                                
G30                                                  23543829.13122     -2024.70022        17.40022
> 2024 05 04 01 39 11.4401588  0 6                      
G17  24075336.25922      2143.75022        14.80022                                                
G19  25289016.04624      2945.35024        23.70024                                                
G23  24075526.32722      2903.20022        16.10022                                                
C22  22832064.85823      1884.35023        23.20023                                                
G30                                                  23544341.75923     -2026.80023        21.80023
C37                                                  26549536.30624     -2278.52224        27.50024
> 2024 05 04 01 39 12.4401589  0 5                      
G19  25288478.27124      2943.00024        24.20024                                                
E08  26602808.57922      2379.95022        16.60022                                                
E24  25394506.16923     -1737.75023        18.40023                                                
G24                                                  22401589.92222      2002.65022        12.90022
C37                                                  26550149.13423     -2279.45023        20.40023
> 2024 05 04 01 39 13.4401589  0 4                      
G19  25287924.45125      2945.16625        29.70025                                                
G30  23547753.94622     -2712.70022        15.90022                                                
C37  26552605.83023     -3023.70023        22.70023  26550728.53023     -2282.25023        21.80023
C22                                                  22829483.29422      1420.55022        15.90022
> 2024 05 04 01 39 14.4401589  0 7                      
G13  20093524.21122      -512.65022        14.10022                                                
G17  24074149.58123      2140.15023        18.50023                                                
G19  25287342.20524      2942.75024        27.60024                                                
C22  22831013.68623      1883.85023        20.10023                                                
C20  25095152.75522     -3201.85022        17.10022                                                
C07  40315517.81622       -22.95022        14.80022                                                
E25  23673796.24022      1085.35022        14.40022                                                
> 2024 05 04 01 39 15.4401589  0 1                      
G19  25286790.39724      2940.35024        27.90024                                                
> 2024 05 04 01 39 16.4401589  0 5                      
G17  24073305.46523      2137.90023        20.60023                                                
G19  25286236.97024      2941.30024        25.20024                                                
G20  24000651.36322     -3682.80022        14.20022                                                
G23  24072818.00322      2903.45022        16.80022                                                
E05  23164522.40323     -1559.90023        19.00023                                                
> 2024 05 04 01 39 17.4401589  0 4                      
G19  25285672.44824      2939.10024        24.50024                                                
C22  22829928.82423      1885.80023        18.60023                                                
C20  25096979.17823     -3205.20023        20.40023  25095088.68622     -2410.70022        13.90022
G24                                                  22399044.01922      1999.60022        16.50022
> 2024 05 04 01 39 18.4401589  0 3                      
G17  24072532.28123      2133.60023        20.30023                                                
G19  25285106.73323      2939.25023        22.10023                                                
G22  21002831.39022      -528.25022        13.10022                                                
> 2024 05 04 01 39 19.4401589  0 4                      
G15  20293066.20522      1455.45022        14.40022                                                
R16  20382914.90422     -2766.50022        14.40022
C20  25098206.57623     -3207.60023        21.80023                                                
C19                                                  22173045.82221      -963.10021        10.90021
> 2024 05 04 01 39 20.4401589  0 1                      
G17  24071676.73623      2133.80023        20.30023                                                
> 2024 05 04 01 39 21.4401589  0 7                      
G17  24071278.63524      2134.70024        23.50024                                                
G19  25283431.27923      2940.10023        21.00023                                                
G24  22399339.09522      2683.45022        13.70022                                                
R07  19923693.14922      2340.95022        14.70022
C22  22828472.81223      1879.80023        19.20023                                                
C20  25099429.76124     -3202.60024        26.70024  25097547.66423     -2413.65023        20.10023
E03  23476243.96921       746.95021        10.00021                                                
> 2024 05 04 01 39 22.4401589  0 4                      
G17  24070868.00323      2135.50023        22.70023                                                
G19  25282881.84424      2935.55024        26.60024                                                
E05  23166325.50522     -1563.55022        17.00022                                                
E08  26598309.39222      2379.45022        13.60022                                                
> 2024 05 04 01 39 23.4401589  0 4                      
G17  24070499.95723      2136.95023        21.90023                                                
G19  25282320.73125      2931.02925        33.50025                                                
G20  24005502.25422     -3688.75022        16.70022                                                
C20  25100668.38623     -3212.30023        21.20023                                                
> 2024 05 04 01 39 24.4401589  0 4                      
G17  24070097.78223      2137.15023        22.10023                                                
E02  26310454.61521      3000.85021        12.20021                                                
C20                                                  25099395.61422     -2415.90022        17.40022
C22                                                  22825518.68622      1414.90022        14.50022
> 2024 05 04 01 39 25.4401589  0 5                      
G17  24069684.19024      2132.45024        24.30024                                                
G19  25281229.75523      2934.85023        21.70023                                                
G30  23554007.28622     -2716.90022        13.30022                                                
C22  22827029.76223      1879.20023        18.90023                                                
C20  25101895.10623     -3206.25023        21.00023                                                
> 2024 05 04 01 39 26.4401589  0 2                      
G19  25280674.45423      2939.80023        22.30023                                                
G23  24067313.64622      2890.10022        16.70022                                                
> 2024 05 04 01 39 27.4401589  0 4                      
G17  24068859.63324      2131.35024        25.20024                                                
G19  25280097.31124      2936.65024        25.70024                                                
C20  25103141.81523     -3210.70023        20.50023  25101242.62923     -2415.90023        19.20023
G24                                                  22393957.84422      1996.25022        15.10022
> 2024 05 04 01 39 28.4401589  0 3                      
G15  20290588.79522      1444.95022        15.80022                                                
G19  25279525.32724      2938.60024        26.30024                                                
E05  23168116.72422     -1565.25022        15.50022                                                
> 2024 05 04 01 39 29.4401589  0 4                      
G17  24068037.99423      2129.45023        20.90023                                                
G19  25278972.28226      2935.02426        36.10026                                                
C22  22825620.70223      1869.25023        20.00023  22823723.61522      1412.75022        16.30022
C20  25104364.46123     -3207.55023        20.60023  25102474.26923     -2418.10023        18.10023
> 2024 05 04 01 39 30.4401589  0 5                      
G19  25278428.60023      2935.25023        21.30023                                                
G20  24010423.42222     -3689.80022        16.00022                                                
G22  21004152.02022      -546.05022        14.10022                                                
C20  25104956.99224     -3203.90024        25.00024                                                
E08  26594673.08322      2378.30022        15.20022                                                
> 2024 05 04 01 39 31.4401589  0 5                      
G17  24067224.07723      2135.55023        23.00023                                                
G19  25277853.47524      2937.60024        24.50024                                                
C20  25105587.33325     -3206.19425        30.50025                                                
C19  22177913.41922     -1280.50022        16.70022                                                
E25  23670312.65322      1072.75022        15.70022                                                
> 2024 05 04 01 39 32.4401589  0 11                      
G05  22096881.45723     -2987.00023        19.50023                                                
G17  24066852.17423      2131.80023        21.10023                                                
G19  25277340.07123      2931.50023        23.20023                                                
G20  24011833.96323     -3688.95023        21.00023                                                
G23  24063985.25923      2879.15023        20.40023                                                
C36  22087081.54122      1381.00022        16.20022                                                
C22  22824522.72123      1868.85023        20.00023                                                
C20  25106207.74324     -3210.30024        27.20024  25104320.55023     -2416.40023        18.30023
E02  26305868.93522      2998.20022        15.50022                                                
E05  23169305.63323     -1568.40023        18.50023                                                
E25  23670111.93223      1070.95023        22.10023                                                
> 2024 05 04 01 39 33.4401589  0 6                      
G17  24066403.26324      2122.60024        25.70024                                                
G19  25276788.93123      2933.35023        21.70023                                                
G24  22393266.05222      2687.75022        14.80022  22390894.39422      1996.20022        16.00022
C20  25106808.70623     -3213.10023        23.00023                                                
C19  22178399.40123     -1293.95023        20.50023                                                
E03  23474527.81021       738.15021        10.20021                                                
> 2024 05 04 01 39 34.4401589  0 6                      
G05  22097989.14824     -2985.80024        24.90024                                                
G17  24066035.49724      2128.75024        24.20024                                                
G20  24013199.17523     -3689.25023        20.30023                                                
C36  22086561.35924      1376.75024        23.60024  22084685.85723      1041.75023        20.30023
C20  25107441.04723     -3211.00023        22.20023                                                
E05  23169896.18223     -1571.95023        20.70023                                                
> 2024 05 04 01 39 35.4401589  0 9                      
G05  22098584.82023     -2979.75023        22.70023                                                
G15  20288708.37122      1441.45022        17.20022                                                
G20  24013947.44223     -3690.70023        21.40023                                                
G24  22392241.12623      2673.35023        21.20023  22389875.16423      1995.70023        19.10023
C36  22086300.22424      1375.75024        25.00024  22084420.22623      1039.35023        21.30023
C19  22178884.53023     -1290.10023        23.10023                                                
E02  26304149.86823      2996.80023        21.60023                                                
E03  23474251.46623       741.35023        18.90023                                                
C22                                                  22821563.11222      1411.40022        14.80022
> 2024 05 04 01 39 36.4401589  0 9                      
G05  22099130.10224     -2986.75024        24.10024                                                
G15  20288387.55324      1436.25024        23.60024                                                
G17  24065224.50323      2120.55023        21.40023                                                
G22  21004768.01322      -552.35022        16.80022                                                
G24  22391722.74423      2674.45023        21.00023                                                
C36  22086026.17324      1374.70024        27.50024  22084156.06823      1035.45023        23.20023
C22  22823096.21023      1869.85023        21.00023                                                
C20  25108673.43823     -3212.00023        22.00023  25106791.04122     -2418.15022        16.90022
C19  22179136.61424     -1292.20024        25.70024  22177249.12123      -972.45023        20.10023
> 2024 05 04 01 39 37.4401589  0 18                      
G05  22099718.65624     -2990.45024        24.80024                                                
G13  20095758.06923      -523.55023        19.80023                                                
G14  21618570.64824     -1703.80024        25.00024                                                
G15  20288135.48924      1433.75024        25.80024                                                
G22  21004840.02524      -549.85024        24.00024                                                
G30  23560230.76422     -2727.50022        13.70022                                                
R09  19440337.10723      1268.60023        19.10023
R16  20392298.97822     -2783.75022        16.00022
R07  19916797.86123      2314.35023        20.80023
C36  22085769.01324      1375.50024        27.80024  22083893.21224      1036.20024        24.00024
C22  22822734.42324      1869.80024        28.30024  22820846.03023      1410.40023        20.40023
C20  25109291.37224     -3210.05024        27.30024  25107407.47623     -2418.10023        21.70023
C19  22179378.60825     -1289.62425        30.80025  22177496.81124      -971.75824        25.40024
E03  23473955.29223       739.35023        22.30023                                                
E05  23170790.16923     -1568.30023        19.60023                                                
E08  26591516.24922      2378.85022        15.50022                                                
E25  23669094.10023      1067.80023        17.80023                                                
G24                                                  22388855.29123      1991.65023        19.30023
> 2024 05 04 01 39 38.4401589  0 15                      
G05  22100303.49423     -2992.80023        21.40023                                                
G13  20095851.24724      -528.40024        27.50024                                                
G14  21618881.17623     -1708.90023        23.00023                                                
G15  20287857.52424      1441.40024        27.50024                                                
G17  24064428.25923      2133.30023        21.00023                                                
G22  21004959.58524      -558.25024        27.10024                                                
R09  19440109.50823      1266.50023        19.90023
R07  19916337.92224      2313.50024        27.10024
C36  22085491.94823      1370.10023        22.60023  22083624.54123      1037.35023        21.20023
C22  22822373.41524      1868.35024        29.20024  22820488.02123      1410.35023        22.60023
C20  25109898.69524     -3211.05024        25.10024                                                
C19  22179619.88424     -1294.00024        29.20024  22177746.18224      -974.74124        26.30024
E03  23473824.22524       736.45024        25.80024  23471911.25024       551.05024        23.80024
E24  25403161.07323     -1744.40023        20.70023                                                
E25  23668885.98724      1064.65024        24.50024  23666977.50824       795.75024        24.80024
> 2024 05 04 01 39 39.4401589  0 17                      
G13  20095950.10124      -529.40024        24.80024                                                
G14  21619225.55923     -1712.10023        21.70023                                                
G15  20287581.63724      1440.35024        24.30024                                                
G22  21005078.82424      -559.20024        23.60024                                                
R09  19439874.39323      1266.35023        20.50023
R16  20393308.84423     -2785.95023        21.50023
R07  19915916.33625      2316.84025        29.50025
C36  22085243.94223      1372.50023        22.30023  22083368.74023      1038.10023        20.90023
C22  22822020.18224      1866.80024        26.00024  22820131.19023      1409.00023        23.40023
E02  26301872.83022      2992.05022        16.80022                                                
E03  23473688.94123       736.10023        21.10023  23471768.77024       550.05024        24.60024
E05  23171391.41723     -1570.85023        23.20023  23169479.34124     -1173.25024        27.10024
E24  25403494.66423     -1746.15023        21.10023                                                
E25  23668693.14223      1064.90023        20.10023  23666780.16724       793.70024        23.80024
G24                                                  22387850.85123      1992.50023        18.70023
G30                                                  23558888.75823     -2030.75023        17.80023
C19                                                  22177995.53123      -975.35023        21.80023
> 2024 05 04 01 39 40.4401589  0 18                      
G05  22101409.64423     -2997.10023        20.30023                                                
G13  20096047.22724      -528.00024        24.60024                                                
G14  21619516.95124     -1713.60024        23.70024                                                
G15  20287308.82023      1435.90023        22.20023                                                
G17  24063587.25723      2123.75023        21.50023                                                
G20  24017489.07022     -3695.25022        17.10022                                                
G22  21005189.44124      -557.90024        27.20024                                                
G23  24059646.18522      2882.85022        16.20022                                                
G24  22389663.69023      2668.85023        18.20023                                                
R09  19439642.64723      1266.50023        20.10023
R16  20393861.65523     -2789.00023        23.40023
R07  19915384.49823      2315.10023        23.40023
C36  22084974.12223      1378.90023        22.90023                                                
C22  22821652.03124      1868.75024        25.90024                                                
C20  25111156.54023     -3216.45023        21.10023  25109266.04822     -2421.95022        17.40022
C19  22180139.94023     -1296.10023        21.40023                                                
E03  23473549.23223       737.20023        21.20023                                                
E05  23171690.90423     -1570.60023        21.80023  23169774.03123     -1171.80023        22.40023
> 2024 05 04 01 39 41.4401589  0 3                      
G19  25272250.08522      2937.65022        17.20022                                                
R09  19439409.47723      1266.35023        19.40023
E05  23171986.26823     -1568.45023        20.40023                                                
> 2024 05 04 01 39 42.4401589  0 5                      
G13  20096246.00523      -530.20023        19.80023                                                
G14  21620174.11223     -1712.45023        21.70023                                                
G22  21005390.91723      -566.50023        21.10023                                                
G30  23562826.24223     -2722.85023        18.00023                                                
R09  19439171.68823      1265.85023        19.50023
> 2024 05 04 01 39 43.4401589  0 3                      
R09  19438934.27423      1266.65023        18.60023
R16  20395467.08023     -2782.90023        18.30023
C36                                                  22082315.59922      1035.75022        15.90022
> 2024 05 04 01 39 44.4401589  0 2                      
C22  22820208.95023      1871.90023        18.30023                                                
G30                                                  23561476.98122     -2029.85022        16.00022
> 2024 05 04 01 39 45.4401589  0 2                      
G15  20285963.28822      1434.80022        17.20022                                                
E24  25405480.12122     -1750.20022        15.50022                                                
> 2024 05 04 01 39 46.4401589  0 6                      
G19  25269500.32723      2933.10023        20.50023                                                
G20  24021681.37422     -3693.00022        16.60022                                                
C22  22819513.61723      1863.35023        21.50023  22817621.32722      1406.95022        13.80022
C20  25114830.20323     -3212.45023        18.20023                                                
G24                                                  22384285.41922      1996.05022        15.40022
C19                                                  22179736.12622      -975.70022        13.70022
> 2024 05 04 01 39 47.4401589  0 6                      
G05  22105426.52822     -2992.75022        16.20022                                                
G17  24060775.16822      2122.55022        16.70022                                                
G19  25268929.18124      2933.07124        28.70024                                                
C19  22181865.21122     -1293.00022        16.60022                                                
E02  26297341.12622      2992.75022        13.90022                                                
E08  26586982.31222      2377.90022        14.30022                                                
> 2024 05 04 01 39 48.4401588  0 5                      
G23  24055202.02322      2881.95022        16.50022                                                
C36  22082815.57822      1377.30022        16.50022  22080957.76422      1033.70022        16.80022
E08  26586511.93423      2374.95023        20.00023                                                
C20                                                  25114155.32522     -2419.60022        14.00022
C22                                                  22816875.39923      1406.30023        18.10023
> 2024 05 04 01 39 49.4401588  0 7                      
G17  24059933.87823      2123.40023        21.80023                                                
G19  25267780.90323      2932.30023        21.20023                                                
G20  24023751.62623     -3693.35023        18.00023                                                
R08  23700104.08322      4065.95022        17.30022
C22  22818404.27123      1863.30023        19.30023  22816514.97923      1402.25023        21.00023
C20  25116654.92523     -3206.05023        20.40023                                                
E08                                                  26584137.20824      1774.20024        23.60024
> 2024 05 04 01 39 50.4401588  0 4                      
G17  24059507.95624      2118.20024        23.50024                                                
G19  25267229.36723      2937.75023        23.00023                                                
C19  22182581.42523     -1297.95023        20.40023                                                
E25  23666450.06422      1059.75022        13.70022                                                
> 2024 05 04 01 39 51.4401588  0 6                      
G05  22107629.20523     -2990.20023        17.80023                                                
G17  24059122.21524      2121.40024        24.20024                                                
G22  21006336.51522      -559.05022        15.90022                                                
G23  24053534.38323      2877.75023        18.30023                                                
G24  22384071.12922      2659.00022        15.60022                                                
C20  25117895.94123     -3213.90023        21.50023                                                
> 2024 05 04 01 39 52.4401589  0 10                      
G15  20284028.37322      1426.35022        16.70022                                                
G17  24058760.48123      2115.25023        21.50023                                                
G19  25266143.72723      2936.75023        19.80023                                                
G20  24025924.21323     -3698.00023        19.00023                                                
R07  19910237.84322      2313.95022        14.40022
C22  22817346.59423      1867.25023        19.40023                                                
C20  25118535.81323     -3211.85023        22.70023  25116657.61422     -2421.30022        16.70022
E03  23471847.19221       734.35021        12.20021                                                
E05  23175288.59522     -1574.70022        13.80022                                                
E08  26584742.18023      2371.05023        17.70023                                                
> 2024 05 04 01 39 53.4401588  0 3                      
G23  24052445.53723      2877.95023        20.80023                                                
C20  25119131.08623     -3217.45023        23.00023                                                
C22                                                  22815079.14823      1403.65023        18.20023
> 2024 05 04 01 39 54.4401588  0 12                      
G13  20097464.62822      -530.40022        14.50022                                                
G14  21624083.37222     -1718.70022        13.60022                                                
G17  24057923.25923      2120.65023        21.60023                                                
G19  25265039.39023      2940.80023        21.20023                                                
G23  24051920.51524      2878.00024        23.50024                                                
G30  23569012.12622     -2715.00022        13.50022                                                
R09  19436367.69622      1258.65022        14.60022
C22  22816605.60623      1865.30023        21.30023                                                
C20  25119753.37024     -3215.15024        23.80024                                                
C19  22183576.14323     -1305.05023        18.10023                                                
E08  26583800.33123      2376.35023        18.60023                                                
G24                                                  22380194.42722      1992.85022        14.60022
> 2024 05 04 01 39 55.4401588  0 7                      
G17  24057514.44824      2123.75024        25.40024                                                
G19  25264439.91124      2935.40024        23.80024                                                
G20  24027958.51023     -3702.70023        19.30023                                                
R16  20401635.66121     -2774.05021        11.40021
C20  25120355.75924     -3215.05024        27.80024  25118477.55923     -2420.95023        18.80023
C19  22183829.87323     -1302.10023        22.80023                                                
C22                                                  22814361.16623      1402.95023        19.30023
> 2024 05 04 01 39 56.4401588  0 5                      
G15  20282927.69223      1428.80023        17.80023                                                
G17  24057122.87124      2116.70024        23.90024                                                
G19  25263868.75825      2934.52825        30.40025                                                
G23  24050857.80823      2868.40023        20.30023                                                
G30                                                  23567671.51121     -2037.75021        10.40021
> 2024 05 04 01 39 57.4401588  0 4                      
G19  25263309.64024      2928.85024        27.90024                                                
C20  25121605.84023     -3219.25023        20.50023                                                
E05  23176773.91922     -1579.95022        15.50022                                                
C22                                                  22813650.60423      1398.10023        18.60023
> 2024 05 04 01 39 58.4401588  0 6                      
G17  24056309.21723      2108.80023        19.70023                                                
G19  25262752.01424      2928.60024        25.90024                                                
E25  23664851.31822      1057.50022        14.50022                                                
G24                                                  22378163.37422      1986.40022        16.10022
C19                                                  22182695.39321      -979.80021        11.10021
C20                                                  25120329.61122     -2426.60022        17.30022
> 2024 05 04 01 39 59.4401588  0 3                      
G05  22112173.68922     -2992.90022        15.50022                                                
G19  25262179.08624      2928.55024        23.90024                                                
C20  25122832.85323     -3215.00023        20.20023                                                
> 2024 05 04 01 40 00.4401588  0 4                      
G17  24055526.63123      2117.15023        20.00023                                                
C36  22079654.49922      1366.20022        15.80022  22077798.78421      1030.00021        11.50021
C22  22814472.49523      1854.75023        18.50023  22812585.00222      1397.55022        16.90022
G24                                                  22377152.04623      1986.20023        18.20023
> 2024 05 04 01 40 01.4401588  0 5                      
G17  24055128.61124      2113.60024        23.90024                                                
G19  25261095.33823      2934.50023        20.60023                                                
R08  23691014.78222      4056.05022        14.40022
C20  25124079.09223     -3218.20023        21.70023  25122188.30123     -2425.55023        17.60023
E08  26580626.14622      2369.95022        16.40022  26578713.47023      1769.25023        23.30023
> 2024 05 04 01 40 02.4401588  0 3                      
G17  24054699.92324      2112.10024        26.30024                                                
G24                                                  22376137.36723      1985.35023        18.30023
C22                                                  22811867.11823      1396.85023        19.40023
> 2024 05 04 01 40 03.4401588  0 6                      
G05  22114507.35723     -2999.50023        18.40023                                                
G19  25259976.59423      2928.90023        19.50023                                                
G20  24033583.20822     -3700.20022        16.50022                                                
G22  21007661.91022      -559.15022        13.80022                                                
G24  22378021.33022      2664.40022        15.30022                                                
C20  25125308.62323     -3214.15023        21.40023                                                
> 2024 05 04 01 40 04.4401588  0 10                      
G15  20280768.50622      1417.00022        16.40022                                                
G17  24053875.13823      2111.80023        21.10023                                                
G19  25259401.47024      2935.10024        25.90024                                                
R07  19905052.10921      2302.10021        11.70021
C36  22078646.36123      1358.50023        19.10023                                                
C22  22813048.54523      1857.05023        20.30023                                                
C20  25125917.37924     -3218.05024        29.20024  25124040.07823     -2426.15023        19.30023
E02  26287604.46022      2988.95022        16.30022                                                
E03  23470181.62121       731.55021        11.20021                                                
E25  23663643.99022      1048.70022        16.10022                                                
> 2024 05 04 01 40 05.4401588  0 8                      
G05  22115606.53323     -3000.90023        20.60023                                                
G17  24053503.05623      2108.05023        21.30023                                                
G19  25258865.10123      2936.00023        23.20023                                                
G20  24034998.06623     -3697.20023        21.70023                                                
G24  22376980.28823      2658.00023        20.50023  22374620.62223      1987.65023        18.00023
C20  25126551.40024     -3219.65024        26.00024  25124659.11023     -2425.55023        21.80023
E05  23179174.84022     -1580.45022        15.70022                                                
E25  23663437.39224      1049.60024        24.00024                                                
> 2024 05 04 01 40 06.4401588  0 9                      
G05  22116145.29523     -3000.80023        22.50023                                                
G17  24053088.47724      2119.70024        24.70024                                                
G19  25258281.13924      2934.91824        29.20024                                                
G20  24035679.52923     -3698.80023        22.50023                                                
G30  23575232.78922     -2715.10022        13.90022                                                
R09  19433610.17521      1258.65021        11.60021
C22  22812337.73123      1855.85023        20.10023                                                
C20  25127152.81824     -3221.00024        25.80024  25125277.01623     -2425.30023        21.30023
E05  23179474.66723     -1582.30023        21.60023                                                
> 2024 05 04 01 40 07.4401588  0 15                      
G05  22116783.55124     -3001.05024        26.80024                                                
G15  20279979.14423      1423.00023        19.80023                                                
G17  24052692.44925      2111.74925        31.50025                                                
G19  25257738.81323      2933.80023        23.00023                                                
G20  24036407.12324     -3699.20024        23.50024                                                
G22  21008063.50223      -575.50023        18.10023                                                
G24  22375978.41423      2652.90023        20.60023  22373607.35523      1987.65023        22.50023
C22  22811978.57723      1859.80023        23.30023  22810087.78622      1394.70022        15.60022
C20  25127774.88524     -3219.85024        25.60024                                                
C19  22186860.33822     -1309.10022        16.30022  22184973.14422      -984.50022        14.00022
C05  40282772.29824         1.10024        24.40024                                                
E02  26285894.73523      2988.25023        21.10023                                                
E05  23179769.96123     -1582.20023        20.80023                                                
E08  26577943.85422      2372.70022        15.60022                                                
E25  23663030.60623      1050.80023        19.60023                                                
> 2024 05 04 01 40 08.4401588  0 13                      
G05  22117329.32824     -3002.30024        25.90024                                                
G17  24052279.78924      2110.20024        27.30024                                                
G20  24037101.89724     -3698.30024        23.80024                                                
G22  21008195.86524      -569.90024        24.70024                                                
G23  24044262.44022      2866.85022        13.80022                                                
G24  22375436.24424      2663.60024        24.90024                                                
R09  19433106.67623      1239.60023        20.30023
C36  22077586.74123      1364.45023        21.80023                                                
C22  22811617.78224      1854.05024        23.90024                                                
C20  25128400.10724     -3219.85024        27.50024  25126514.41223     -2426.95023        20.80023
C19  22187104.22424     -1312.55024        25.80024  22185217.03023      -986.90023        22.90023
E02  26285329.18124      2988.40024        25.50024  26283410.81024      2232.20024        25.60024
E03  23469618.75722       729.90022        17.30022                                                
> 2024 05 04 01 40 09.4401588  0 12                      
G05  22117904.38125     -2999.28325        30.50025                                                
G14  21629080.18723     -1731.05023        19.50023                                                
G15  20279410.94423      1417.65023        21.40023                                                
G24  22374956.92723      2663.15023        23.20023  22372592.76423      1984.80023        19.30023
R07  19902936.07222      2302.20022        17.10022
C36  22077322.07624      1363.50024        26.40024  22075452.57022      1024.90022        16.10022
C22  22811274.27124      1859.15024        24.10024  22809381.38223      1398.90023        18.20023
C20  25129008.73724     -3215.90024        25.40024                                                
C19  22187371.09024     -1304.55024        23.80024                                                
E02  26284758.12824      2988.05024        24.50024  26282845.75224      2232.80024        24.50024
E03  23469491.99723       732.50023        23.10023                                                
E25  23662637.48523      1052.25023        19.20023                                                
> 2024 05 04 01 40 10.4401588  0 15                      
G05  22118484.08224     -3004.00024        25.60024                                                
G14  21629386.17823     -1729.60023        23.00023                                                
G15  20279133.53824      1419.70024        26.80024                                                
G17  24051518.87023      2116.35023        19.70023                                                
G22  21008434.45423      -574.65023        22.40023                                                
G24  22374451.68024      2653.40024        24.20024  22372086.61723      1985.75023        22.30023
R09  19432605.97723      1240.60023        20.60023
C36  22077059.66024      1360.25024        28.20024                                                
C22  22810921.31823      1853.50023        23.30023  22809025.43124      1400.19024        25.30024
C20  25129640.90224     -3219.30024        24.10024                                                
C19  22187607.22924     -1309.80024        27.00024  22185723.63323      -987.00023        21.60023
E02  26284170.73823      2986.85023        21.60023                                                
E05  23180680.23922     -1580.05022        16.70022  23178760.06924     -1178.80024        23.50024
E25  23662434.12823      1049.35023        22.50023  23660522.05223       784.30023        22.80023
G30                                                  23574973.27623     -2032.65023        20.10023
> 2024 05 04 01 40 11.4401588  0 21                      
G05  22119048.70624     -3010.55024        25.10024                                                
G13  20099201.51723      -546.30023        19.10023                                                
G14  21629698.37624     -1726.20024        25.00024                                                
G15  20278873.73324      1416.30024        28.10024                                                
G17  24051095.07823      2111.30023        21.80023                                                
G19  25255486.39523      2928.75023        18.90023                                                
G20  24039195.11623     -3698.15023        18.80023                                                
G22  21008537.69724      -578.90024        25.70024                                                
G30  23577847.80122     -2720.70022        16.80022                                                
R09  19432397.73624      1236.10024        26.30024
R16  20410107.28223     -2797.05023        19.70023
R07  19902105.36423      2293.10023        22.90023
C36  22076799.55524      1355.70024        27.70024  22074929.74923      1023.55023        22.20023
C22  22810549.99025      1851.32725        31.90025  22808662.49624      1395.85924        23.50024
C20  25130252.29325     -3218.82525        30.70025  25128366.59923     -2426.65023        21.10023
C19  22187853.47425     -1314.45425        32.90025  22185971.97624      -988.56024        24.00024
E03  23469211.40823       725.55023        21.40023                                                
E05  23180973.25124     -1582.45024        24.70024  23179069.86924     -1182.25024        24.30024
E24  25414212.41222     -1761.80022        17.20022                                                
E25  23662234.28124      1044.85024        26.40024  23660319.50724       781.90024        25.90024
G24                                                  22371576.78523      1982.00023        21.80023
> 2024 05 04 01 40 12.4401588  0 20                      
G05  22119634.10923     -3003.95023        22.40023                                                
G13  20099306.65324      -546.25024        27.90024                                                
G14  21630005.87224     -1730.30024        25.70024                                                
G15  20278590.03725      1415.13525        30.10025                                                
G19  25254973.65923      2932.80023        22.20023                                                
G22  21008624.24524      -584.10024        28.50024                                                
R10  22256559.81722      3665.75022        15.90022
R09  19432135.92523      1229.60023        22.30023
R16  20410627.03024     -2796.00024        25.20024
R07  19901681.06624      2291.75024        27.20024
C36  22076540.14224      1353.20024        24.50024  22074668.23823      1020.40023        20.90023
C22  22810203.33825      1849.40725        33.90025  22808312.84723      1394.75023        23.00023
C20  25130863.17925     -3224.63325        31.60025  25128988.27723     -2426.75023        21.30023
C19  22188105.50726     -1314.34026        35.70026  22186225.50923      -990.30023        23.10023
E02  26283060.32923      2982.50023        20.30023                                                
E03  23469076.11023       724.15023        23.00023  23467158.33724       541.50024        24.00024
E05  23181273.85125     -1582.81125        31.70025  23179366.27224     -1178.83924        25.70024
E24  25414527.40223     -1765.55023        23.10023                                                
E25  23662034.52725      1045.20825        30.20025  23660121.85224       779.45024        23.70024
G24                                                  22371075.74023      1978.55023        21.80023
> 2024 05 04 01 40 13.4401588  0 20                      
G05  22120156.94623     -3010.90023        22.20023                                                
G13  20099404.08424      -548.30024        25.90024                                                
G14  21630331.44524     -1737.20024        25.10024                                                
G15  20278340.00924      1414.95024        23.90024                                                
G17  24050287.64423      2111.25023        22.60023                                                
G19  25254396.25724      2928.05024        24.00024                                                
G22  21008746.85925      -585.11425        32.40025                                                
G24  22372957.83523      2657.00023        18.40023                                                
R09  19431847.52323      1234.10023        22.80023
R16  20411110.59424     -2803.90024        24.60024
R07  19901274.84624      2290.65024        25.10024
R08  23681815.73221      4060.05021        11.50021
C36  22076289.21523      1354.35023        22.40023                                                
C22  22809841.78724      1849.60024        27.10024  22807956.99223      1393.05023        20.50023
C20  25131488.84424     -3223.50024        23.50024  25129608.24623     -2426.75023        20.30023
C19  22188350.13623     -1317.85023        22.40023                                                
E03  23468934.90624       721.00024        25.50024                                                
E05  23181580.53724     -1586.90024        27.50024  23179669.36024     -1183.80324        25.80024
E24  25414863.46823     -1767.25023        22.10023  25412957.08723     -1318.90023        23.40023
E25  23661829.46824      1044.05024        25.50024                                                
> 2024 05 04 01 40 14.4401587  0 8                      
G13  20099475.26523      -544.95023        21.70023                                                
G14  21630679.93424     -1740.80024        23.90024                                                
G17  24049820.99823      2100.85023        21.90023                                                
G20  24041259.82523     -3699.60023        17.80023                                                
G22  21008818.04024      -588.05324        28.80024                                                
G30  23579370.18423     -2724.00023        18.90023  23577018.61222     -2037.05022        17.40022
E05  23181850.48123     -1587.15023        22.50023                                                
C36                                                  22074117.64923      1019.30023        17.70023
> 2024 05 04 01 40 15.4401587  0 3                      
E05  23182144.81623     -1588.65023        22.30023  23180237.53723     -1186.35023        22.60023
E24  25415532.37423     -1770.05023        20.00023                                                
G30                                                  23577539.59023     -2040.70023        22.60023
> 2024 05 04 01 40 16.4401587  0 6                      
G14  21631363.06623     -1740.45023        19.50023                                                
G22  21009057.17923      -587.10023        20.40023                                                
G30  23580413.66623     -2726.30023        19.80023                                                
R06  19615152.05922     -1655.55022        14.60022
R16  20412642.26923     -2811.50023        19.00023
E02  26280755.25822      2981.15022        16.50022                                                
> 2024 05 04 01 40 17.4401587  0 9                      
G13  20099784.19423      -550.25023        21.30023                                                
G14  21631669.99223     -1736.85023        22.00023                                                
G15  20277255.63423      1407.55023        18.00023                                                
R16  20413211.81324     -2801.85024        23.50024
C22  22808388.06723      1845.15023        20.10023  22806504.77122      1395.10022        16.60022
E03  23468345.18822       722.65022        17.00022                                                
E05  23182754.79823     -1586.35023        18.60023                                                
E24  25416199.91623     -1768.05023        19.80023  25414275.24923     -1318.45023        22.60023
G30                                                  23578581.27323     -2037.50023        20.50023
> 2024 05 04 01 40 18.4401587  0 11                      
G14  21632013.91324     -1737.20024        24.80024                                                
G22  21009285.61923      -588.65023        20.50023                                                
G30  23581453.94323     -2731.55023        20.20023  23579100.27323     -2039.00023        22.20023
R16  20413697.23624     -2805.45024        25.20024
R07  19899024.93622      2295.80022        17.40022
C36  22074936.58423      1356.20023        18.20023  22073080.56922      1020.95022        16.60022
C22  22808040.66624      1843.15024        23.70024                                                
C20  25134568.04523     -3224.60023        18.50023                                                
C19  22189606.89923     -1313.50023        18.40023                                                
G24                                                  22368024.18322      1981.00022        16.50022
E05                                                  23181153.96523     -1186.20023        22.70023
> 2024 05 04 01 40 19.4401587  0 13                      
G05  22123632.47822     -3014.40022        16.90022                                                
G13  20100027.09023      -550.25023        19.60023                                                
G14  21632349.68624     -1741.70024        24.00024                                                
G17  24047879.44923      2110.15023        18.70023                                                
G22  21009375.26223      -586.50023        22.10023                                                
G30  23581958.79923     -2731.55023        22.10023  23579619.21924     -2041.85124        26.30024
R16  20414244.06324     -2804.15024        28.70024
R07  19898746.13423      2296.00023        22.70023
E03  23468083.83323       723.90023        20.00023                                                
